{"´s-Hertogenbosch":{"stop_id":"´s-Hertogenbosch","stop_name":"´s-Hertogenbosch","stop_country":"NL","stop_timezone":"CET","stop_lat":51.6904144001487,"stop_lon":5.29461690794058,"location_type":1,"stop_name_romanized":"","stop_name_alt":"","stop_cityname":"´s-Hertogenbosch","stop_cityname_romanized":"´s-Hertogenbosch","stop_cityname_alt":""},"Aachen Hbf":{"stop_id":"Aachen Hbf","stop_name":"Aachen Hbf","stop_country":"DE","stop_timezone":"CET","stop_lat":50.767937341436,"stop_lon":6.09126317041595,"location_type":1,"stop_name_romanized":"","stop_name_alt":"","stop_cityname":"Aachen","stop_cityname_romanized":"Aachen","stop_cityname_alt":""},"Aberdeen":{"stop_id":"Aberdeen","stop_name":"Aberdeen","stop_country":"UK","stop_timezone":"GMT","stop_lat":57.1446879299216,"stop_lon":-2.09639888200741,"location_type":1,"stop_name_romanized":"","stop_name_alt":"","stop_cityname":"Aberdeen","stop_cityname_romanized":"Aberdeen","stop_cityname_alt":""},"Alba Iulia":{"stop_id":"Alba Iulia","stop_name":"Alba Iulia","stop_country":"RO","stop_timezone":"EET","stop_lat":46.0575565888554,"stop_lon":23.5765020548974,"location_type":1,"stop_name_romanized":"","stop_name_alt":"","stop_cityname":"Alba Iulia","stop_cityname_romanized":"Alba Iulia","stop_cityname_alt":""},"Afyon A Çetinkaya":{"stop_id":"Afyon A Çetinkaya","stop_name":"Afyon A Çetinkaya","stop_country":"TR","stop_timezone":"TRT","stop_lat":38.7642283673834,"stop_lon":30.55250287276,"location_type":1,"stop_name_romanized":"","stop_name_alt":"","stop_cityname":"Afyonkarahisar","stop_cityname_romanized":"Afyonkarahisar","stop_cityname_alt":""},"Albi Ville":{"stop_id":"Albi Ville","stop_name":"Albi Ville","stop_country":"FR","stop_timezone":"CET","stop_lat":43.9244506867034,"stop_lon":2.13816736492265,"location_type":1,"stop_name_romanized":"","stop_name_alt":"","stop_cityname":"Albi","stop_cityname_romanized":"Albi","stop_cityname_alt":""},"Alvesta":{"stop_id":"Alvesta","stop_name":"Alvesta","stop_country":"SE","stop_timezone":"CET","stop_lat":56.8991387652633,"stop_lon":14.5571502167077,"location_type":1,"stop_name_romanized":"","stop_name_alt":"","stop_cityname":"Alvesta","stop_cityname_romanized":"Alvesta","stop_cityname_alt":""},"Amersfoort Centraal":{"stop_id":"Amersfoort Centraal","stop_name":"Amersfoort Centraal","stop_country":"NL","stop_timezone":"CET","stop_lat":52.153564204407,"stop_lon":5.37451594112664,"location_type":1,"stop_name_romanized":"","stop_name_alt":"","stop_cityname":"Amersfoort","stop_cityname_romanized":"Amersfoort","stop_cityname_alt":""},"Amsterdam Centraal":{"stop_id":"Amsterdam Centraal","stop_name":"Amsterdam Centraal","stop_country":"NL","stop_timezone":"CET","stop_lat":52.3792054172188,"stop_lon":4.90029259050744,"location_type":1,"stop_name_romanized":"","stop_name_alt":"","stop_cityname":"Amsterdam","stop_cityname_romanized":"Amsterdam","stop_cityname_alt":""},"Amstetten (NÖ)":{"stop_id":"Amstetten (NÖ)","stop_name":"Amstetten (NÖ)","stop_country":"AT","stop_timezone":"CET","stop_lat":48.1222782647489,"stop_lon":14.8782194142773,"location_type":1,"stop_name_romanized":"","stop_name_alt":"","stop_cityname":"Amstetten","stop_cityname_romanized":"Amstetten","stop_cityname_alt":""},"Ancona":{"stop_id":"Ancona","stop_name":"Ancona","stop_country":"IT","stop_timezone":"CET","stop_lat":43.6075665413184,"stop_lon":13.4977416268995,"location_type":1,"stop_name_romanized":"","stop_name_alt":"","stop_cityname":"Ancona","stop_cityname_romanized":"Ancona","stop_cityname_alt":""},"Ankara":{"stop_id":"Ankara","stop_name":"Ankara","stop_country":"TR","stop_timezone":"TRT","stop_lat":39.93497830418,"stop_lon":32.8439484393733,"location_type":1,"stop_name_romanized":"","stop_name_alt":"","stop_cityname":"Ankara","stop_cityname_romanized":"Ankara","stop_cityname_alt":""},"Antibes":{"stop_id":"Antibes","stop_name":"Antibes","stop_country":"FR","stop_timezone":"CET","stop_lat":43.5861472431592,"stop_lon":7.11951943802613,"location_type":1,"stop_name_romanized":"","stop_name_alt":"","stop_cityname":"Antibes","stop_cityname_romanized":"Antibes","stop_cityname_alt":""},"Antwerpen Centraal":{"stop_id":"Antwerpen Centraal","stop_name":"Antwerpen Centraal","stop_country":"BE","stop_timezone":"CET","stop_lat":51.2172848382696,"stop_lon":4.42114163520642,"location_type":1,"stop_name_romanized":"","stop_name_alt":"","stop_cityname":"Antwerpen","stop_cityname_romanized":"Antwerpen","stop_cityname_alt":""},"Arad":{"stop_id":"Arad","stop_name":"Arad","stop_country":"RO","stop_timezone":"EET","stop_lat":46.191344762816,"stop_lon":21.3249166148997,"location_type":1,"stop_name_romanized":"","stop_name_alt":"","stop_cityname":"Arad","stop_cityname_romanized":"Arad","stop_cityname_alt":""},"Åre":{"stop_id":"Åre","stop_name":"Åre","stop_country":"SE","stop_timezone":"CET","stop_lat":63.3990270140757,"stop_lon":13.0759611531875,"location_type":1,"stop_name_romanized":"","stop_name_alt":"","stop_cityname":"Åre","stop_cityname_romanized":"Åre","stop_cityname_alt":""},"Arlanda":{"stop_id":"Arlanda","stop_name":"Arlanda","stop_country":"SE","stop_timezone":"CET","stop_lat":59.6498247362544,"stop_lon":17.9291946715542,"location_type":1,"stop_name_romanized":"","stop_name_alt":"","stop_cityname":"Arlanda","stop_cityname_romanized":"Arlanda","stop_cityname_alt":""},"Arnhem Centraal":{"stop_id":"Arnhem Centraal","stop_name":"Arnhem Centraal","stop_country":"NL","stop_timezone":"CET","stop_lat":51.9849054879212,"stop_lon":5.90100000711403,"location_type":1,"stop_name_romanized":"","stop_name_alt":"","stop_cityname":"Arnhem","stop_cityname_romanized":"Arnhem","stop_cityname_alt":""},"Aschaffenburg":{"stop_id":"Aschaffenburg","stop_name":"Aschaffenburg","stop_country":"DE","stop_timezone":"CET","stop_lat":49.9810587659771,"stop_lon":9.14488197515629,"location_type":1,"stop_name_romanized":"","stop_name_alt":"","stop_cityname":"Aschaffenburg","stop_cityname_romanized":"Aschaffenburg","stop_cityname_alt":""},"Augsburg Hbf":{"stop_id":"Augsburg Hbf","stop_name":"Augsburg Hbf","stop_country":"DE","stop_timezone":"CET","stop_lat":48.365865612741,"stop_lon":10.8862865241648,"location_type":1,"stop_name_romanized":"","stop_name_alt":"","stop_cityname":"Augsburg","stop_cityname_romanized":"Augsburg","stop_cityname_alt":""},"Aurillac":{"stop_id":"Aurillac","stop_name":"Aurillac","stop_country":"FR","stop_timezone":"CET","stop_lat":44.9212044634116,"stop_lon":2.43622547274664,"location_type":1,"stop_name_romanized":"","stop_name_alt":"","stop_cityname":"Aurillac","stop_cityname_romanized":"Aurillac","stop_cityname_alt":""},"Aviemore":{"stop_id":"Aviemore","stop_name":"Aviemore","stop_country":"UK","stop_timezone":"GMT","stop_lat":57.1885175063276,"stop_lon":-3.82836273529857,"location_type":1,"stop_name_romanized":"","stop_name_alt":"","stop_cityname":"Aviemore","stop_cityname_romanized":"Aviemore","stop_cityname_alt":""},"Bacău":{"stop_id":"Bacău","stop_name":"Bacău","stop_country":"RO","stop_timezone":"EET","stop_lat":46.5637830170539,"stop_lon":26.8945751436853,"location_type":1,"stop_name_romanized":"","stop_name_alt":"","stop_cityname":"Bacău","stop_cityname_romanized":"Bacău","stop_cityname_alt":""},"Bad Schandau":{"stop_id":"Bad Schandau","stop_name":"Bad Schandau","stop_country":"DE","stop_timezone":"CET","stop_lat":50.9190603837842,"stop_lon":14.1402030712657,"location_type":1,"stop_name_romanized":"","stop_name_alt":"","stop_cityname":"Bad Schandau","stop_cityname_romanized":"Bad Schandau","stop_cityname_alt":""},"Baia Mare":{"stop_id":"Baia Mare","stop_name":"Baia Mare","stop_country":"RO","stop_timezone":"EET","stop_lat":47.6474637801185,"stop_lon":23.5524938001684,"location_type":1,"stop_name_romanized":"","stop_name_alt":"","stop_cityname":"Baia Mare","stop_cityname_romanized":"Baia Mare","stop_cityname_alt":""},"Balıkesir":{"stop_id":"Balıkesir","stop_name":"Balıkesir","stop_country":"TR","stop_timezone":"TRT","stop_lat":39.6483428573625,"stop_lon":27.8888452888178,"location_type":1,"stop_name_romanized":"","stop_name_alt":"","stop_cityname":"Balıkesir","stop_cityname_romanized":"Balıkesir","stop_cityname_alt":""},"Bar":{"stop_id":"Bar","stop_name":"Bar","stop_country":"ME","stop_timezone":"CET","stop_lat":42.087237269274,"stop_lon":19.1052541212328,"location_type":1,"stop_name_romanized":"","stop_name_alt":"","stop_cityname":"Bar","stop_cityname_romanized":"Bar","stop_cityname_alt":""},"Barcellona Castroreale":{"stop_id":"Barcellona Castroreale","stop_name":"Barcellona Castroreale","stop_country":"IT","stop_timezone":"CET","stop_lat":38.1553505566956,"stop_lon":15.2000647697951,"location_type":1,"stop_name_romanized":"","stop_name_alt":"","stop_cityname":"Barcellona Pozzo di Gotto","stop_cityname_romanized":"Barcellona Pozzo di Gotto","stop_cityname_alt":""},"Barcelona Sants":{"stop_id":"Barcelona Sants","stop_name":"Barcelona Sants","stop_country":"ES","stop_timezone":"CET","stop_lat":41.379064043175,"stop_lon":2.14020014372112,"location_type":1,"stop_name_romanized":"","stop_name_alt":"","stop_cityname":"Barcelona","stop_cityname_romanized":"Barcelona","stop_cityname_alt":""},"Bari Centrale":{"stop_id":"Bari Centrale","stop_name":"Bari Centrale","stop_country":"IT","stop_timezone":"CET","stop_lat":41.1180660412934,"stop_lon":16.8706136891249,"location_type":1,"stop_name_romanized":"","stop_name_alt":"","stop_cityname":"Bari","stop_cityname_romanized":"Bari","stop_cityname_alt":""},"Bârlad":{"stop_id":"Bârlad","stop_name":"Bârlad","stop_country":"RO","stop_timezone":"EET","stop_lat":46.2164553828231,"stop_lon":27.6739165200463,"location_type":1,"stop_name_romanized":"","stop_name_alt":"","stop_cityname":"Bârlad","stop_cityname_romanized":"Bârlad","stop_cityname_alt":""},"Basel Bad Bf":{"stop_id":"Basel Bad Bf","stop_name":"Basel Bad Bf","stop_country":"CH","stop_timezone":"CET","stop_lat":47.567288,"stop_lon":7.607805,"location_type":1,"stop_name_romanized":"","stop_name_alt":"","stop_cityname":"Basel","stop_cityname_romanized":"Basel","stop_cityname_alt":""},"Basel SBB":{"stop_id":"Basel SBB","stop_name":"Basel SBB","stop_country":"CH","stop_timezone":"CET","stop_lat":47.547405,"stop_lon":7.589551,"location_type":1,"stop_name_romanized":"","stop_name_alt":"","stop_cityname":"Basel","stop_cityname_romanized":"Basel","stop_cityname_alt":""},"Batman":{"stop_id":"Batman","stop_name":"Batman","stop_country":"TR","stop_timezone":"TRT","stop_lat":37.8782936814659,"stop_lon":41.1227188963716,"location_type":1,"stop_name_romanized":"","stop_name_alt":"","stop_cityname":"Batman","stop_cityname_romanized":"Batman","stop_cityname_alt":"Êlih"},"Bayonne":{"stop_id":"Bayonne","stop_name":"Bayonne","stop_country":"FR","stop_timezone":"CET","stop_lat":43.497018,"stop_lon":-1.470194,"location_type":1,"stop_name_romanized":"","stop_name_alt":"","stop_cityname":"Bayonne","stop_cityname_romanized":"Bayonne","stop_cityname_alt":"Baiona"},"Beclean pe Somes":{"stop_id":"Beclean pe Somes","stop_name":"Beclean pe Somes","stop_country":"RO","stop_timezone":"EET","stop_lat":47.1770133760501,"stop_lon":24.1820694658512,"location_type":1,"stop_name_romanized":"","stop_name_alt":"","stop_cityname":"Beclean pe Somes","stop_cityname_romanized":"Beclean pe Somes","stop_cityname_alt":""},"Beograd Centar":{"stop_id":"Beograd Centar","stop_name":"Београд Центар","stop_country":"RS","stop_timezone":"CET","stop_lat":44.7928833278071,"stop_lon":20.4550076904252,"location_type":1,"stop_name_romanized":"Beograd Centar","stop_name_alt":"","stop_cityname":"Београд","stop_cityname_romanized":"Beograd","stop_cityname_alt":""},"Beograd Zemun":{"stop_id":"Beograd Zemun","stop_name":"Београд Земун","stop_country":"RS","stop_timezone":"CET","stop_lat":44.837315061001,"stop_lon":20.3795818993737,"location_type":1,"stop_name_romanized":"Beograd Zemun","stop_name_alt":"","stop_cityname":"Београд","stop_cityname_romanized":"Beograd","stop_cityname_alt":""},"Bergen":{"stop_id":"Bergen","stop_name":"Bergen","stop_country":"NO","stop_timezone":"CET","stop_lat":48.534216,"stop_lon":12.628929,"location_type":1,"stop_name_romanized":"","stop_name_alt":"","stop_cityname":"Bergen","stop_cityname_romanized":"Bergen","stop_cityname_alt":""},"Berlin Charlottenburg":{"stop_id":"Berlin Charlottenburg","stop_name":"Berlin Charlottenburg","stop_country":"DE","stop_timezone":"CET","stop_lat":52.505141411445,"stop_lon":13.3032001811941,"location_type":1,"stop_name_romanized":"","stop_name_alt":"","stop_cityname":"Berlin","stop_cityname_romanized":"Berlin","stop_cityname_alt":""},"Berlin Gesundbrunnen":{"stop_id":"Berlin Gesundbrunnen","stop_name":"Berlin Gesundbrunnen","stop_country":"DE","stop_timezone":"CET","stop_lat":52.5487844646972,"stop_lon":13.3887213416192,"location_type":1,"stop_name_romanized":"","stop_name_alt":"","stop_cityname":"Berlin","stop_cityname_romanized":"Berlin","stop_cityname_alt":""},"Berlin Hbf":{"stop_id":"Berlin Hbf","stop_name":"Berlin Hbf","stop_country":"DE","stop_timezone":"CET","stop_lat":52.525592,"stop_lon":13.369545,"location_type":1,"stop_name_romanized":"","stop_name_alt":"","stop_cityname":"Berlin","stop_cityname_romanized":"Berlin","stop_cityname_alt":""},"Berlin Ostbahnhof":{"stop_id":"Berlin Ostbahnhof","stop_name":"Berlin Ostbahnhof","stop_country":"DE","stop_timezone":"CET","stop_lat":52.511013,"stop_lon":13.43461,"location_type":1,"stop_name_romanized":"","stop_name_alt":"","stop_cityname":"Berlin","stop_cityname_romanized":"Berlin","stop_cityname_alt":""},"Berlin Südkreuz":{"stop_id":"Berlin Südkreuz","stop_name":"Berlin Südkreuz","stop_country":"DE","stop_timezone":"CET","stop_lat":52.4762001037597,"stop_lon":13.3641633987426,"location_type":1,"stop_name_romanized":"","stop_name_alt":"","stop_cityname":"Berlin","stop_cityname_romanized":"Berlin","stop_cityname_alt":""},"Beziers":{"stop_id":"Beziers","stop_name":"Beziers","stop_country":"FR","stop_timezone":"CET","stop_lat":43.3368450763793,"stop_lon":3.21886361463239,"location_type":1,"stop_name_romanized":"","stop_name_alt":"","stop_cityname":"Beziers","stop_cityname_romanized":"Beziers","stop_cityname_alt":""},"Biarritz":{"stop_id":"Biarritz","stop_name":"Biarritz","stop_country":"FR","stop_timezone":"CET","stop_lat":43.459312,"stop_lon":-1.545938,"location_type":1,"stop_name_romanized":"","stop_name_alt":"","stop_cityname":"Biarritz","stop_cityname_romanized":"Biarritz","stop_cityname_alt":""},"Bjelovar":{"stop_id":"Bjelovar","stop_name":"Bjelovar","stop_country":"HR","stop_timezone":"CET","stop_lat":45.8948651312561,"stop_lon":16.8446039654395,"location_type":1,"stop_name_romanized":"","stop_name_alt":"","stop_cityname":"Bjelovar","stop_cityname_romanized":"Bjelovar","stop_cityname_alt":""},"Bielsko-Biała Gł.":{"stop_id":"Bielsko-Biała Gł.","stop_name":"Bielsko-Biała Gł.","stop_country":"PL","stop_timezone":"CET","stop_lat":49.8315369623239,"stop_lon":19.0494078563541,"location_type":1,"stop_name_romanized":"","stop_name_alt":"","stop_cityname":"Bielsko-Biała","stop_cityname_romanized":"Bielsko-Biała","stop_cityname_alt":""},"Biharkeresztes":{"stop_id":"Biharkeresztes","stop_name":"Biharkeresztes","stop_country":"HU","stop_timezone":"CET","stop_lat":47.1343629067523,"stop_lon":21.7226249936725,"location_type":1,"stop_name_romanized":"","stop_name_alt":"","stop_cityname":"Biharkeresztes","stop_cityname_romanized":"Biharkeresztes","stop_cityname_alt":""},"Bistrița Nord":{"stop_id":"Bistrița Nord","stop_name":"Bistrița Nord","stop_country":"RO","stop_timezone":"EET","stop_lat":47.132479,"stop_lon":24.483896,"location_type":1,"stop_name_romanized":"","stop_name_alt":"","stop_cityname":"Bistrița","stop_cityname_romanized":"Bistrița","stop_cityname_alt":"Beszterce"},"Bludenz":{"stop_id":"Bludenz","stop_name":"Bludenz","stop_country":"AT","stop_timezone":"CET","stop_lat":47.155165059301,"stop_lon":9.81525194432307,"location_type":1,"stop_name_romanized":"","stop_name_alt":"","stop_cityname":"Bludenz","stop_cityname_romanized":"Bludenz","stop_cityname_alt":""},"Boden C":{"stop_id":"Boden C","stop_name":"Boden C","stop_country":"SE","stop_timezone":"CET","stop_lat":65.8289304272944,"stop_lon":21.7076630714254,"location_type":1,"stop_name_romanized":"","stop_name_alt":"","stop_cityname":"Boden","stop_cityname_romanized":"Boden","stop_cityname_alt":""},"Bodø":{"stop_id":"Bodø","stop_name":"Bodø","stop_country":"NO","stop_timezone":"CET","stop_lat":67.28638,"stop_lon":14.391182,"location_type":1,"stop_name_romanized":"","stop_name_alt":"","stop_cityname":"Bodø","stop_cityname_romanized":"Bodø","stop_cityname_alt":""},"Bohumín":{"stop_id":"Bohumín","stop_name":"Bohumín","stop_country":"CZ","stop_timezone":"CET","stop_lat":49.90073,"stop_lon":18.359443,"location_type":1,"stop_name_romanized":"","stop_name_alt":"","stop_cityname":"Bohumín","stop_cityname_romanized":"Bohumín","stop_cityname_alt":""},"Bologna Centrale":{"stop_id":"Bologna Centrale","stop_name":"Bologna Centrale","stop_country":"IT","stop_timezone":"CET","stop_lat":44.50614,"stop_lon":11.343411,"location_type":1,"stop_name_romanized":"","stop_name_alt":"","stop_cityname":"Bologna","stop_cityname_romanized":"Bologna","stop_cityname_alt":""},"Bolzano / Bozen":{"stop_id":"Bolzano / Bozen","stop_name":"Bolzano / Bozen","stop_country":"IT","stop_timezone":"CET","stop_lat":46.49638,"stop_lon":11.358787,"location_type":1,"stop_name_romanized":"","stop_name_alt":"","stop_cityname":"Bolzano","stop_cityname_romanized":"Bolzano","stop_cityname_alt":"Bozen"},"Bonn Hbf":{"stop_id":"Bonn Hbf","stop_name":"Bonn Hbf","stop_country":"DE","stop_timezone":"CET","stop_lat":50.732007,"stop_lon":7.097131,"location_type":1,"stop_name_romanized":"","stop_name_alt":"","stop_cityname":"Bonn","stop_cityname_romanized":"Bonn","stop_cityname_alt":""},"Bonn-Beuel":{"stop_id":"Bonn-Beuel","stop_name":"Bonn-Beuel","stop_country":"DE","stop_timezone":"CET","stop_lat":50.738534,"stop_lon":7.127691,"location_type":1,"stop_name_romanized":"","stop_name_alt":"","stop_cityname":"Bonn","stop_cityname_romanized":"Bonn","stop_cityname_alt":""},"Brașov":{"stop_id":"Brașov","stop_name":"Brașov","stop_country":"RO","stop_timezone":"EET","stop_lat":45.6437857,"stop_lon":25.58683738,"location_type":1,"stop_name_romanized":"","stop_name_alt":"","stop_cityname":"Brașov","stop_cityname_romanized":"Brașov","stop_cityname_alt":"Brassó"},"Bratislava hl.st.":{"stop_id":"Bratislava hl.st.","stop_name":"Bratislava hl.st.","stop_country":"SK","stop_timezone":"CET","stop_lat":48.15891,"stop_lon":17.106466,"location_type":1,"stop_name_romanized":"","stop_name_alt":"","stop_cityname":"Bratislava","stop_cityname_romanized":"Bratislava","stop_cityname_alt":""},"Bratislava Nové Mesto":{"stop_id":"Bratislava Nové Mesto","stop_name":"Bratislava Nové Mesto","stop_country":"SK","stop_timezone":"CET","stop_lat":48.1719341698925,"stop_lon":17.1464817400886,"location_type":1,"stop_name_romanized":"","stop_name_alt":"","stop_cityname":"Bratislava","stop_cityname_romanized":"Bratislava","stop_cityname_alt":""},"Bratislava Petržalka":{"stop_id":"Bratislava Petržalka","stop_name":"Bratislava Petržalka","stop_country":"SK","stop_timezone":"CET","stop_lat":48.1267208567006,"stop_lon":17.1074035501398,"location_type":1,"stop_name_romanized":"","stop_name_alt":"","stop_cityname":"Bratislava","stop_cityname_romanized":"Bratislava","stop_cityname_alt":""},"Břeclav":{"stop_id":"Břeclav","stop_name":"Břeclav","stop_country":"CZ","stop_timezone":"CET","stop_lat":48.753904,"stop_lon":16.893239,"location_type":1,"stop_name_romanized":"","stop_name_alt":"","stop_cityname":"Břeclav","stop_cityname_romanized":"Břeclav","stop_cityname_alt":""},"Bregenz":{"stop_id":"Bregenz","stop_name":"Bregenz","stop_country":"AT","stop_timezone":"CET","stop_lat":47.503003,"stop_lon":9.739627,"location_type":1,"stop_name_romanized":"","stop_name_alt":"","stop_cityname":"Bregenz","stop_cityname_romanized":"Bregenz","stop_cityname_alt":""},"Bremen Hbf":{"stop_id":"Bremen Hbf","stop_name":"Bremen Hbf","stop_country":"DE","stop_timezone":"CET","stop_lat":53.083515,"stop_lon":8.813323,"location_type":1,"stop_name_romanized":"","stop_name_alt":"","stop_cityname":"Bremen","stop_cityname_romanized":"Bremen","stop_cityname_alt":""},"Bretenoux Biars":{"stop_id":"Bretenoux Biars","stop_name":"Bretenoux Biars","stop_country":"FR","stop_timezone":"CET","stop_lat":44.927688063938,"stop_lon":1.84463216168342,"location_type":1,"stop_name_romanized":"","stop_name_alt":"","stop_cityname":"Bretenoux","stop_cityname_romanized":"Bretenoux","stop_cityname_alt":"Bertenor"},"Briançon":{"stop_id":"Briançon","stop_name":"Briançon","stop_country":"FR","stop_timezone":"CET","stop_lat":44.889614,"stop_lon":6.632627,"location_type":1,"stop_name_romanized":"","stop_name_alt":"","stop_cityname":"Briançon","stop_cityname_romanized":"Briançon","stop_cityname_alt":""},"Brindisi":{"stop_id":"Brindisi","stop_name":"Brindisi","stop_country":"IT","stop_timezone":"CET","stop_lat":40.6344823492976,"stop_lon":17.9392782785155,"location_type":1,"stop_name_romanized":"","stop_name_alt":"","stop_cityname":"Brindisi","stop_cityname_romanized":"Brindisi","stop_cityname_alt":""},"Brno hl.n.":{"stop_id":"Brno hl.n.","stop_name":"Brno hl.n.","stop_country":"CZ","stop_timezone":"CET","stop_lat":49.190541,"stop_lon":16.612773,"location_type":1,"stop_name_romanized":"","stop_name_alt":"","stop_cityname":"Brno","stop_cityname_romanized":"Brno","stop_cityname_alt":""},"Bruck an der Mur":{"stop_id":"Bruck an der Mur","stop_name":"Bruck an der Mur","stop_country":"AT","stop_timezone":"CET","stop_lat":47.40581877,"stop_lon":15.27572617,"location_type":1,"stop_name_romanized":"","stop_name_alt":"","stop_cityname":"Bruck an der Mur","stop_cityname_romanized":"Bruck an der Mur","stop_cityname_alt":""},"Bruxelles-Midi / Brussel-Zuid":{"stop_id":"Bruxelles-Midi / Brussel-Zuid","stop_name":"Bruxelles-Midi / Brussel-Zuid","stop_country":"BE","stop_timezone":"CET","stop_lat":50.8368108,"stop_lon":4.33740096,"location_type":1,"stop_name_romanized":"","stop_name_alt":"","stop_cityname":"Bruxelles / Brussel","stop_cityname_romanized":"Bruxelles / Brussel","stop_cityname_alt":""},"Bruxelles-Nord / Brussel-Noord":{"stop_id":"Bruxelles-Nord / Brussel-Noord","stop_name":"Bruxelles-Nord","stop_country":"BE","stop_timezone":"CET","stop_lat":50.860239,"stop_lon":4.361458,"location_type":1,"stop_name_romanized":"","stop_name_alt":"Brussel-Noord","stop_cityname":"Bruxelles","stop_cityname_romanized":"Bruxelles","stop_cityname_alt":"Brussel"},"Buchs (SG)":{"stop_id":"Buchs (SG)","stop_name":"Buchs (SG)","stop_country":"CH","stop_timezone":"CET","stop_lat":47.168414,"stop_lon":9.47864,"location_type":1,"stop_name_romanized":"","stop_name_alt":"","stop_cityname":"Buchs","stop_cityname_romanized":"Buchs","stop_cityname_alt":""},"Bucuresti Baneasa":{"stop_id":"Bucuresti Baneasa","stop_name":"Bucuresti Baneasa","stop_country":"RO","stop_timezone":"EET","stop_lat":44.4855039801137,"stop_lon":26.0740835517681,"location_type":1,"stop_name_romanized":"","stop_name_alt":"","stop_cityname":"București","stop_cityname_romanized":"București","stop_cityname_alt":""},"București Nord":{"stop_id":"București Nord","stop_name":"București Nord","stop_country":"RO","stop_timezone":"EET","stop_lat":44.446768,"stop_lon":26.074408,"location_type":1,"stop_name_romanized":"","stop_name_alt":"","stop_cityname":"București","stop_cityname_romanized":"București","stop_cityname_alt":""},"Budapest Déli":{"stop_id":"Budapest Déli","stop_name":"Budapest Déli","stop_country":"HU","stop_timezone":"CET","stop_lat":47.5004280093032,"stop_lon":19.0246648047167,"location_type":1,"stop_name_romanized":"","stop_name_alt":"","stop_cityname":"Budapest","stop_cityname_romanized":"Budapest","stop_cityname_alt":""},"Budapest Ferencváros":{"stop_id":"Budapest Ferencváros","stop_name":"Budapest Ferencváros","stop_country":"HU","stop_timezone":"CET","stop_lat":47.4688325677313,"stop_lon":19.0887319974834,"location_type":1,"stop_name_romanized":"","stop_name_alt":"","stop_cityname":"Budapest","stop_cityname_romanized":"Budapest","stop_cityname_alt":""},"Budapest Kelenföld":{"stop_id":"Budapest Kelenföld","stop_name":"Budapest Kelenföld","stop_country":"HU","stop_timezone":"CET","stop_lat":47.4652613708704,"stop_lon":19.0209763407376,"location_type":1,"stop_name_romanized":"","stop_name_alt":"","stop_cityname":"Budapest","stop_cityname_romanized":"Budapest","stop_cityname_alt":""},"Budapest Keleti":{"stop_id":"Budapest Keleti","stop_name":"Budapest Keleti","stop_country":"HU","stop_timezone":"CET","stop_lat":47.5005944491753,"stop_lon":19.0842564299295,"location_type":1,"stop_name_romanized":"","stop_name_alt":"","stop_cityname":"Budapest","stop_cityname_romanized":"Budapest","stop_cityname_alt":""},"Budapest Nyugati":{"stop_id":"Budapest Nyugati","stop_name":"Budapest Nyugati","stop_country":"HU","stop_timezone":"CET","stop_lat":47.5113315748478,"stop_lon":19.0586602310782,"location_type":1,"stop_name_romanized":"","stop_name_alt":"","stop_cityname":"Budapest","stop_cityname_romanized":"Budapest","stop_cityname_alt":""},"Burgas":{"stop_id":"Burgas","stop_name":"Бургас","stop_country":"BG","stop_timezone":"EET","stop_lat":42.490805,"stop_lon":27.472671,"location_type":1,"stop_name_romanized":"Burgas","stop_name_alt":"","stop_cityname":"Бургас","stop_cityname_romanized":"Burgas","stop_cityname_alt":""},"Buzău":{"stop_id":"Buzău","stop_name":"Buzău","stop_country":"RO","stop_timezone":"EET","stop_lat":45.3190305452246,"stop_lon":26.8781237606132,"location_type":1,"stop_name_romanized":"","stop_name_alt":"","stop_cityname":"Buzău","stop_cityname_romanized":"Buzău","stop_cityname_alt":""},"Bydgoszcz":{"stop_id":"Bydgoszcz","stop_name":"Bydgoszcz","stop_country":"PL","stop_timezone":"CET","stop_lat":53.135112,"stop_lon":17.99164,"location_type":1,"stop_name_romanized":"","stop_name_alt":"","stop_cityname":"Bydgoszcz","stop_cityname_romanized":"Bydgoszcz","stop_cityname_alt":""},"Calalzo-Pieve Di Cadore (Cortina)":{"stop_id":"Calalzo-Pieve Di Cadore (Cortina)","stop_name":"Calalzo-Pieve Di Cadore (Cortina)","stop_country":"IT","stop_timezone":"CET","stop_lat":46.4440043243139,"stop_lon":12.3885501381838,"location_type":1,"stop_name_romanized":"","stop_name_alt":"","stop_cityname":"Pieve Di Cadore","stop_cityname_romanized":"Pieve Di Cadore","stop_cityname_alt":""},"Câmpina":{"stop_id":"Câmpina","stop_name":"Câmpina","stop_country":"RO","stop_timezone":"EET","stop_lat":45.1332553303685,"stop_lon":25.7115042080243,"location_type":1,"stop_name_romanized":"","stop_name_alt":"","stop_cityname":"Câmpina","stop_cityname_romanized":"Câmpina","stop_cityname_alt":""},"Câmpulung Moldovenesc":{"stop_id":"Câmpulung Moldovenesc","stop_name":"Câmpulung Moldovenesc","stop_country":"RO","stop_timezone":"EET","stop_lat":47.5343512323347,"stop_lon":25.5583214840309,"location_type":1,"stop_name_romanized":"","stop_name_alt":"","stop_cityname":"Câmpulung Moldovenesc","stop_cityname_romanized":"Câmpulung Moldovenesc","stop_cityname_alt":""},"Cannes":{"stop_id":"Cannes","stop_name":"Cannes","stop_country":"FR","stop_timezone":"CET","stop_lat":43.553991,"stop_lon":7.019577,"location_type":1,"stop_name_romanized":"","stop_name_alt":"","stop_cityname":"Cannes","stop_cityname_romanized":"Cannes","stop_cityname_alt":""},"Carcassonne":{"stop_id":"Carcassonne","stop_name":"Carcassonne","stop_country":"FR","stop_timezone":"CET","stop_lat":43.218165,"stop_lon":2.35243,"location_type":1,"stop_name_romanized":"","stop_name_alt":"","stop_cityname":"Carcassonne","stop_cityname_romanized":"Carcassonne","stop_cityname_alt":""},"Carei":{"stop_id":"Carei","stop_name":"Carei","stop_country":"RO","stop_timezone":"EET","stop_lat":47.6971045559089,"stop_lon":22.4602711713222,"location_type":1,"stop_name_romanized":"","stop_name_alt":"","stop_cityname":"Carei","stop_cityname_romanized":"Carei","stop_cityname_alt":""},"Carlisle":{"stop_id":"Carlisle","stop_name":"Carlisle","stop_country":"UK","stop_timezone":"GMT","stop_lat":54.890382,"stop_lon":-2.932866,"location_type":1,"stop_name_romanized":"","stop_name_alt":"","stop_cityname":"Carlisle","stop_cityname_romanized":"Carlisle","stop_cityname_alt":""},"Catania Centrale":{"stop_id":"Catania Centrale","stop_name":"Catania Centrale","stop_country":"IT","stop_timezone":"CET","stop_lat":37.506574,"stop_lon":15.100161,"location_type":1,"stop_name_romanized":"","stop_name_alt":"","stop_cityname":"Catania","stop_cityname_romanized":"Catania","stop_cityname_alt":""},"Cerbère":{"stop_id":"Cerbère","stop_name":"Cerbère","stop_country":"FR","stop_timezone":"CET","stop_lat":42.442771,"stop_lon":3.165528,"location_type":1,"stop_name_romanized":"","stop_name_alt":"","stop_cityname":"Cerbère","stop_cityname_romanized":"Cerbère","stop_cityname_alt":"Cervera de la Marenda"},"České Budějovice":{"stop_id":"České Budějovice","stop_name":"České Budějovice","stop_country":"CZ","stop_timezone":"CET","stop_lat":48.974616,"stop_lon":14.48875,"location_type":1,"stop_name_romanized":"","stop_name_alt":"","stop_cityname":"České Budějovice","stop_cityname_romanized":"České Budějovice","stop_cityname_alt":""},"Chelm":{"stop_id":"Chelm","stop_name":"Chelm","stop_country":"PL","stop_timezone":"CET","stop_lat":51.141197,"stop_lon":23.494036,"location_type":1,"stop_name_romanized":"","stop_name_alt":"","stop_cityname":"Chelm","stop_cityname_romanized":"Chelm","stop_cityname_alt":""},"Cherkasy":{"stop_id":"Cherkasy","stop_name":"Черкаси","stop_country":"UA","stop_timezone":"EET","stop_lat":49.42785075298,"stop_lon":32.0499185509664,"location_type":1,"stop_name_romanized":"Cherkasy","stop_name_alt":"","stop_cityname":"Черкаси","stop_cityname_romanized":"Cherkasy","stop_cityname_alt":""},"Chernihiv":{"stop_id":"Chernihiv","stop_name":"Чернігів","stop_country":"UA","stop_timezone":"EET","stop_lat":51.4865413202529,"stop_lon":31.2674153997355,"location_type":1,"stop_name_romanized":"Chernihiv","stop_name_alt":"","stop_cityname":"Чернігів","stop_cityname_romanized":"Chernihiv","stop_cityname_alt":""},"Chernivtsi":{"stop_id":"Chernivtsi","stop_name":"Чернівці","stop_country":"UA","stop_timezone":"EET","stop_lat":48.29320888,"stop_lon":25.93284383,"location_type":1,"stop_name_romanized":"Chernivtsi","stop_name_alt":"","stop_cityname":"Чернівці","stop_cityname_romanized":"Chernivtsi","stop_cityname_alt":""},"Chervonohrad":{"stop_id":"Chervonohrad","stop_name":"Chervonohrad","stop_country":"UA","stop_timezone":"EET","stop_lat":50.38742758,"stop_lon":24.22281595,"location_type":1,"stop_name_romanized":"Chervonohrad","stop_name_alt":"","stop_cityname":"Chervonohrad","stop_cityname_romanized":"Chervonohrad","stop_cityname_alt":""},"Chişinău":{"stop_id":"Chişinău","stop_name":"Chişinău","stop_country":"MD","stop_timezone":"EET","stop_lat":47.012874,"stop_lon":28.860192,"location_type":1,"stop_name_romanized":"","stop_name_alt":"","stop_cityname":"Chişinău","stop_cityname_romanized":"Chişinău","stop_cityname_alt":""},"Chop":{"stop_id":"Chop","stop_name":"Chop","stop_country":"UA","stop_timezone":"EET","stop_lat":48.7090560784776,"stop_lon":22.2725850269181,"location_type":1,"stop_name_romanized":"","stop_name_alt":"","stop_cityname":"Chop","stop_cityname_romanized":"Chop","stop_cityname_alt":""},"Ciechanow":{"stop_id":"Ciechanow","stop_name":"Ciechanow","stop_country":"PL","stop_timezone":"CET","stop_lat":52.88345,"stop_lon":20.591437,"location_type":1,"stop_name_romanized":"","stop_name_alt":"","stop_cityname":"Ciechanow","stop_cityname_romanized":"Ciechanow","stop_cityname_alt":""},"Civitavecchia":{"stop_id":"Civitavecchia","stop_name":"Civitavecchia","stop_country":"IT","stop_timezone":"CET","stop_lat":42.0883633833738,"stop_lon":11.7985255793952,"location_type":1,"stop_name_romanized":"","stop_name_alt":"","stop_cityname":"Civitavecchia","stop_cityname_romanized":"Civitavecchia","stop_cityname_alt":""},"Clermont-Ferrand":{"stop_id":"Clermont-Ferrand","stop_name":"Clermont-Ferrand","stop_country":"FR","stop_timezone":"CET","stop_lat":45.7792548614768,"stop_lon":3.10056969783808,"location_type":1,"stop_name_romanized":"","stop_name_alt":"","stop_cityname":"Clermont-Ferrand","stop_cityname_romanized":"Clermont-Ferrand","stop_cityname_alt":""},"Cluj-Napoca":{"stop_id":"Cluj-Napoca","stop_name":"Cluj-Napoca","stop_country":"RO","stop_timezone":"EET","stop_lat":46.784197,"stop_lon":23.586616,"location_type":1,"stop_name_romanized":"","stop_name_alt":"","stop_cityname":"Cluj-Napoca","stop_cityname_romanized":"Cluj-Napoca","stop_cityname_alt":"Kolozsvár"},"Constanța":{"stop_id":"Constanța","stop_name":"Constanța","stop_country":"RO","stop_timezone":"EET","stop_lat":44.168767,"stop_lon":28.631893,"location_type":1,"stop_name_romanized":"","stop_name_alt":"","stop_cityname":"Constanța","stop_cityname_romanized":"Constanța","stop_cityname_alt":""},"Craiova":{"stop_id":"Craiova","stop_name":"Craiova","stop_country":"RO","stop_timezone":"EET","stop_lat":44.327085,"stop_lon":23.822089,"location_type":1,"stop_name_romanized":"","stop_name_alt":"","stop_cityname":"Craiova","stop_cityname_romanized":"Craiova","stop_cityname_alt":""},"Crest":{"stop_id":"Crest","stop_name":"Crest","stop_country":"FR","stop_timezone":"CET ","stop_lat":44.7319349741964,"stop_lon":5.01640449981258,"location_type":1,"stop_name_romanized":"","stop_name_alt":"","stop_cityname":"Crest","stop_cityname_romanized":"Crest","stop_cityname_alt":""},"Crewe":{"stop_id":"Crewe","stop_name":"Crewe","stop_country":"UK","stop_timezone":"GMT","stop_lat":53.088943,"stop_lon":-2.432724,"location_type":1,"stop_name_romanized":"","stop_name_alt":"","stop_cityname":"Crewe","stop_cityname_romanized":"Crewe","stop_cityname_alt":""},"Crianlarich":{"stop_id":"Crianlarich","stop_name":"Crianlarich","stop_country":"UK","stop_timezone":"GMT","stop_lat":56.3904655423247,"stop_lon":-4.61856269644842,"location_type":1,"stop_name_romanized":"","stop_name_alt":"","stop_cityname":"Crianlarich","stop_cityname_romanized":"Crianlarich","stop_cityname_alt":""},"Curtici":{"stop_id":"Curtici","stop_name":"Curtici","stop_country":"RO","stop_timezone":"EET","stop_lat":46.3424516386861,"stop_lon":21.2976298726113,"location_type":1,"stop_name_romanized":"","stop_name_alt":"","stop_cityname":"Curtici","stop_cityname_romanized":"Curtici","stop_cityname_alt":""},"Częstochowa":{"stop_id":"Częstochowa","stop_name":"Częstochowa","stop_country":"PL","stop_timezone":"CET","stop_lat":50.80865,"stop_lon":19.121323,"location_type":1,"stop_name_romanized":"","stop_name_alt":"","stop_cityname":"Częstochowa","stop_cityname_romanized":"Częstochowa","stop_cityname_alt":""},"Dalgopol":{"stop_id":"Dalgopol","stop_name":"Дългопол","stop_country":"BG","stop_timezone":"EET","stop_lat":43.048037,"stop_lon":27.341168,"location_type":1,"stop_name_romanized":"Dalgopol","stop_name_alt":"","stop_cityname":"Дългопол","stop_cityname_romanized":"Дългопол","stop_cityname_alt":""},"Dax":{"stop_id":"Dax","stop_name":"Dax","stop_country":"FR","stop_timezone":"CET","stop_lat":43.7207383502672,"stop_lon":-1.05025467956232,"location_type":1,"stop_name_romanized":"","stop_name_alt":"","stop_cityname":"Dax","stop_cityname_romanized":"Dax","stop_cityname_alt":""},"Debrecen":{"stop_id":"Debrecen","stop_name":"Debrecen","stop_country":"HU","stop_timezone":"CET","stop_lat":47.5204638799518,"stop_lon":21.6283807027257,"location_type":1,"stop_name_romanized":"","stop_name_alt":"","stop_cityname":"Debrecen","stop_cityname_romanized":"Debrecen","stop_cityname_alt":""},"Děčín hl.n.":{"stop_id":"Děčín hl.n.","stop_name":"Děčín hl.n.","stop_country":"CZ","stop_timezone":"CET","stop_lat":50.773987,"stop_lon":14.201527,"location_type":1,"stop_name_romanized":"","stop_name_alt":"","stop_cityname":"Děčín","stop_cityname_romanized":"Děčín","stop_cityname_alt":""},"Deda":{"stop_id":"Deda","stop_name":"Deda","stop_country":"RO","stop_timezone":"EET","stop_lat":46.941425,"stop_lon":24.865755,"location_type":1,"stop_name_romanized":"","stop_name_alt":"","stop_cityname":"Deda","stop_cityname_romanized":"Deda","stop_cityname_alt":""},"Dej":{"stop_id":"Dej","stop_name":"Dej","stop_country":"RO","stop_timezone":"EET","stop_lat":47.156566,"stop_lon":23.911774,"location_type":1,"stop_name_romanized":"","stop_name_alt":"","stop_cityname":"Dej","stop_cityname_romanized":"Dej","stop_cityname_alt":""},"Den Haag":{"stop_id":"Den Haag","stop_name":"Den Haag","stop_country":"NL","stop_timezone":"CET","stop_lat":52.080408,"stop_lon":4.325169,"location_type":1,"stop_name_romanized":"","stop_name_alt":"","stop_cityname":"Den Haag","stop_cityname_romanized":"Den Haag","stop_cityname_alt":""},"Deva":{"stop_id":"Deva","stop_name":"Deva","stop_country":"RO","stop_timezone":"EET","stop_lat":45.8843992229006,"stop_lon":22.9104788635233,"location_type":1,"stop_name_romanized":"","stop_name_alt":"","stop_cityname":"Deva","stop_cityname_romanized":"Deva","stop_cityname_alt":""},"Deventer":{"stop_id":"Deventer","stop_name":"Deventer","stop_country":"NL","stop_timezone":"CET","stop_lat":52.257614411935,"stop_lon":6.16081141982717,"location_type":1,"stop_name_romanized":"","stop_name_alt":"","stop_cityname":"Deventer","stop_cityname_romanized":"Deventer","stop_cityname_alt":""},"Dimitrovgrad":{"stop_id":"Dimitrovgrad","stop_name":"Димитровград","stop_country":"BG","stop_timezone":"EET","stop_lat":42.054864,"stop_lon":25.592936,"location_type":1,"stop_name_romanized":"Dimitrovgrad","stop_name_alt":"","stop_cityname":"Димитровград","stop_cityname_romanized":"Dimitrovgrad","stop_cityname_alt":""},"Diyarbakır":{"stop_id":"Diyarbakır","stop_name":"Diyarbakır","stop_country":"TR","stop_timezone":"TRT","stop_lat":37.913755933227,"stop_lon":40.2160243051151,"location_type":1,"stop_name_romanized":"","stop_name_alt":"","stop_cityname":"Diyarbakır","stop_cityname_romanized":"Diyarbakır","stop_cityname_alt":"Amed"},"Dnipro Holovny":{"stop_id":"Dnipro Holovny","stop_name":"Дніпро Головний","stop_country":"UA","stop_timezone":"EET","stop_lat":48.479540100534,"stop_lon":35.015331757291,"location_type":1,"stop_name_romanized":"Dnipro Holovny","stop_name_alt":"","stop_cityname":"Дніпро","stop_cityname_romanized":"Dnipro","stop_cityname_alt":""},"Dobrich":{"stop_id":"Dobrich","stop_name":"Добрич","stop_country":"BG","stop_timezone":"EET","stop_lat":43.655705622218,"stop_lon":27.8270389971691,"location_type":1,"stop_name_romanized":"Dobrich","stop_name_alt":"","stop_cityname":"Добрич","stop_cityname_romanized":"Dobrich","stop_cityname_alt":""},"Dornbirn":{"stop_id":"Dornbirn","stop_name":"Dornbirn","stop_country":"AT","stop_timezone":"CET","stop_lat":47.417691,"stop_lon":9.738808,"location_type":1,"stop_name_romanized":"","stop_name_alt":"","stop_cityname":"Dornbirn","stop_cityname_romanized":"Dornbirn","stop_cityname_alt":""},"Drammen":{"stop_id":"Drammen","stop_name":"Drammen","stop_country":"NO","stop_timezone":"CET","stop_lat":59.740044,"stop_lon":10.204707,"location_type":1,"stop_name_romanized":"","stop_name_alt":"","stop_cityname":"Drammen","stop_cityname_romanized":"Drammen","stop_cityname_alt":""},"Dresden Hbf":{"stop_id":"Dresden Hbf","stop_name":"Dresden Hbf","stop_country":"DE","stop_timezone":"CET","stop_lat":51.0402873,"stop_lon":13.7318705,"location_type":1,"stop_name_romanized":"","stop_name_alt":"","stop_cityname":"Dresden","stop_cityname_romanized":"Dresden","stop_cityname_alt":""},"Dresden Neustadt":{"stop_id":"Dresden Neustadt","stop_name":"Dresden Neustadt","stop_country":"DE","stop_timezone":"CET","stop_lat":51.065912,"stop_lon":13.740524,"location_type":1,"stop_name_romanized":"","stop_name_alt":"","stop_cityname":"Dresden","stop_cityname_romanized":"Dresden","stop_cityname_alt":""},"Dubno":{"stop_id":"Dubno","stop_name":"Дубно","stop_country":"UA","stop_timezone":"EET","stop_lat":50.38681323,"stop_lon":25.75266576,"location_type":1,"stop_name_romanized":"Dubno","stop_name_alt":"","stop_cityname":"Дубно","stop_cityname_romanized":"Dubno","stop_cityname_alt":""},"Duisburg Hbf":{"stop_id":"Duisburg Hbf","stop_name":"Duisburg Hbf","stop_country":"DE","stop_timezone":"CET","stop_lat":51.431999,"stop_lon":6.778013,"location_type":1,"stop_name_romanized":"","stop_name_alt":"","stop_cityname":"Duisburg","stop_cityname_romanized":"Duisburg","stop_cityname_alt":""},"Dundee":{"stop_id":"Dundee","stop_name":"Dundee","stop_country":"UK","stop_timezone":"GMT","stop_lat":56.4564162963388,"stop_lon":-2.97198762170163,"location_type":1,"stop_name_romanized":"","stop_name_alt":"","stop_cityname":"Dundee","stop_cityname_romanized":"Dundee","stop_cityname_alt":""},"Düsseldorf Hbf":{"stop_id":"Düsseldorf Hbf","stop_name":"Düsseldorf Hbf","stop_country":"DE","stop_timezone":"CET","stop_lat":51.221199,"stop_lon":6.79271,"location_type":1,"stop_name_romanized":"","stop_name_alt":"","stop_cityname":"Düsseldorf","stop_cityname_romanized":"Düsseldorf","stop_cityname_alt":""},"Duved":{"stop_id":"Duved","stop_name":"Duved","stop_country":"SE","stop_timezone":"CET","stop_lat":63.389853,"stop_lon":12.917553,"location_type":1,"stop_name_romanized":"","stop_name_alt":"","stop_cityname":"Duved","stop_cityname_romanized":"Duved","stop_cityname_alt":""},"Edinburgh Waverley":{"stop_id":"Edinburgh Waverley","stop_name":"Edinburgh Waverley","stop_country":"UK","stop_timezone":"GMT","stop_lat":55.9543968168671,"stop_lon":-3.18440503810316,"location_type":1,"stop_name_romanized":"","stop_name_alt":"","stop_cityname":"Edinburgh","stop_cityname_romanized":"Edinburgh","stop_cityname_alt":""},"Edirne":{"stop_id":"Edirne","stop_name":"Edirne","stop_country":"TR","stop_timezone":"TRT","stop_lat":41.6554309016021,"stop_lon":26.5801951775787,"location_type":1,"stop_name_romanized":"","stop_name_alt":"","stop_cityname":"Edirne","stop_cityname_romanized":"Edirne","stop_cityname_alt":""},"Elazığ":{"stop_id":"Elazığ","stop_name":"Elazığ","stop_country":"TR","stop_timezone":"TRT","stop_lat":38.6656329229287,"stop_lon":39.2228913187772,"location_type":1,"stop_name_romanized":"","stop_name_alt":"","stop_cityname":"Elazığ","stop_cityname_romanized":"Elazığ","stop_cityname_alt":"Elezîz"},"Erfurt":{"stop_id":"Erfurt","stop_name":"Erfurt","stop_country":"DE","stop_timezone":"CET","stop_lat":50.9736638285773,"stop_lon":11.0441993413075,"location_type":1,"stop_name_romanized":"","stop_name_alt":"","stop_cityname":"Erfurt","stop_cityname_romanized":"Erfurt","stop_cityname_alt":""},"Erzincan":{"stop_id":"Erzincan","stop_name":"Erzincan","stop_country":"TR","stop_timezone":"TRT","stop_lat":39.733470241669,"stop_lon":39.4937249158967,"location_type":1,"stop_name_romanized":"","stop_name_alt":"","stop_cityname":"Erzincan","stop_cityname_romanized":"Erzincan","stop_cityname_alt":""},"Erzurum":{"stop_id":"Erzurum","stop_name":"Erzurum","stop_country":"TR","stop_timezone":"TRT","stop_lat":39.9153809006279,"stop_lon":41.2688012787901,"location_type":1,"stop_name_romanized":"","stop_name_alt":"","stop_cityname":"Erzurum","stop_cityname_romanized":"Erzurum","stop_cityname_alt":""},"Eskişehir":{"stop_id":"Eskişehir","stop_name":"Eskişehir","stop_country":"TR","stop_timezone":"TRT","stop_lat":39.779613,"stop_lon":30.504786,"location_type":1,"stop_name_romanized":"","stop_name_alt":"","stop_cityname":"Eskişehir","stop_cityname_romanized":"Eskişehir","stop_cityname_alt":""},"Fastiv":{"stop_id":"Fastiv","stop_name":"Фастів","stop_country":"UA","stop_timezone":"EET","stop_lat":50.078384,"stop_lon":29.929656,"location_type":1,"stop_name_romanized":"Fastiv","stop_name_alt":"","stop_cityname":"Фастів","stop_cityname_romanized":"Fastiv","stop_cityname_alt":""},"Feldkirch":{"stop_id":"Feldkirch","stop_name":"Feldkirch","stop_country":"AT","stop_timezone":"CET","stop_lat":47.2412070752505,"stop_lon":9.60425499036367,"location_type":1,"stop_name_romanized":"","stop_name_alt":"","stop_cityname":"Feldkirch","stop_cityname_romanized":"Feldkirch","stop_cityname_alt":""},"Fetești":{"stop_id":"Fetești","stop_name":"Fetești","stop_country":"RO","stop_timezone":"EET","stop_lat":44.4171798280693,"stop_lon":27.8221626710752,"location_type":1,"stop_name_romanized":"","stop_name_alt":"","stop_cityname":"Fetești","stop_cityname_romanized":"Fetești","stop_cityname_alt":""},"Figeac":{"stop_id":"Figeac","stop_name":"Figeac","stop_country":"FR","stop_timezone":"CET","stop_lat":44.6052194413955,"stop_lon":2.0424986846128,"location_type":1,"stop_name_romanized":"","stop_name_alt":"","stop_cityname":"Figeac","stop_cityname_romanized":"Figeac","stop_cityname_alt":""},"Firenze S. M. N.":{"stop_id":"Firenze S. M. N.","stop_name":"Firenze S. M. N.","stop_country":"IT","stop_timezone":"CET","stop_lat":43.776811,"stop_lon":11.247807,"location_type":1,"stop_name_romanized":"","stop_name_alt":"","stop_cityname":"Firenze","stop_cityname_romanized":"Firenze","stop_cityname_alt":""},"Fleury-les-Aubrais (Orléans)":{"stop_id":"Fleury-les-Aubrais (Orléans)","stop_name":"Fleury-les-Aubrais (Orléans)","stop_country":"FR","stop_timezone":"CET","stop_lat":47.9266968849819,"stop_lon":1.90667906061776,"location_type":1,"stop_name_romanized":"","stop_name_alt":"","stop_cityname":"Orléans","stop_cityname_romanized":"Orléans","stop_cityname_alt":""},"Foggia":{"stop_id":"Foggia","stop_name":"Foggia","stop_country":"IT","stop_timezone":"CET","stop_lat":41.465945,"stop_lon":15.553421,"location_type":1,"stop_name_romanized":"","stop_name_alt":"","stop_cityname":"Foggia","stop_cityname_romanized":"Foggia","stop_cityname_alt":""},"Fort William / An Gearasdan":{"stop_id":"Fort William / An Gearasdan","stop_name":"Fort William","stop_country":"UK","stop_timezone":"GMT","stop_lat":56.820473,"stop_lon":-5.105909,"location_type":1,"stop_name_romanized":"","stop_name_alt":"An Gearasdan","stop_cityname":"Fort William","stop_cityname_romanized":"Fort William","stop_cityname_alt":"An Gearasdan"},"Frankfurt (Oder)":{"stop_id":"Frankfurt (Oder)","stop_name":"Frankfurt (Oder)","stop_country":"DE","stop_timezone":"CET","stop_lat":52.335863,"stop_lon":14.547073,"location_type":1,"stop_name_romanized":"","stop_name_alt":"","stop_cityname":"Frankfurt/Oder","stop_cityname_romanized":"Frankfurt/Oder","stop_cityname_alt":""},"Frankfurt am Main Hbf":{"stop_id":"Frankfurt am Main Hbf","stop_name":"Frankfurt am Main Hbf","stop_country":"DE","stop_timezone":"CET","stop_lat":50.106817,"stop_lon":8.663003,"location_type":1,"stop_name_romanized":"","stop_name_alt":"","stop_cityname":"Frankfurt am Main","stop_cityname_romanized":"Frankfurt am Main","stop_cityname_alt":""},"Frankfurt am Main Süd":{"stop_id":"Frankfurt am Main Süd","stop_name":"Frankfurt am Main Süd","stop_country":"DE","stop_timezone":"CET","stop_lat":50.099302,"stop_lon":8.686187,"location_type":1,"stop_name_romanized":"","stop_name_alt":"","stop_cityname":"Frankfurt am Main","stop_cityname_romanized":"Frankfurt am Main","stop_cityname_alt":""},"Freiburg (Breisgau) Hbf":{"stop_id":"Freiburg (Breisgau) Hbf","stop_name":"Freiburg (Breisgau) Hbf","stop_country":"DE","stop_timezone":"CET","stop_lat":47.997921,"stop_lon":7.84131,"location_type":1,"stop_name_romanized":"","stop_name_alt":"","stop_cityname":"Freiburg","stop_cityname_romanized":"Freiburg","stop_cityname_alt":""},"Fulda":{"stop_id":"Fulda","stop_name":"Fulda","stop_country":"DE","stop_timezone":"CET","stop_lat":50.5547630046602,"stop_lon":9.68378693889097,"location_type":1,"stop_name_romanized":"","stop_name_alt":"","stop_cityname":"Fulda","stop_cityname_romanized":"Fulda ","stop_cityname_alt":""},"Gällivare C":{"stop_id":"Gällivare C","stop_name":"Gällivare C","stop_country":"SE","stop_timezone":"CET","stop_lat":67.133611995063,"stop_lon":20.6516815191314,"location_type":1,"stop_name_romanized":"","stop_name_alt":"","stop_cityname":"Gällivare","stop_cityname_romanized":"Gällivare","stop_cityname_alt":"Váhčir"},"Gävle C":{"stop_id":"Gävle C","stop_name":"Gävle C","stop_country":"SE","stop_timezone":"CET","stop_lat":60.676231283783,"stop_lon":17.1516598937469,"location_type":1,"stop_name_romanized":"","stop_name_alt":"","stop_cityname":"Gävle","stop_cityname_romanized":"Gävle","stop_cityname_alt":""},"Gap":{"stop_id":"Gap","stop_name":"Gap","stop_country":"FR","stop_timezone":"CET","stop_lat":44.5638048959747,"stop_lon":6.08594689842551,"location_type":1,"stop_name_romanized":"","stop_name_alt":"","stop_cityname":"Gap","stop_cityname_romanized":"Gap","stop_cityname_alt":""},"Gdańsk Gł.":{"stop_id":"Gdańsk Gł.","stop_name":"Gdańsk Gł.","stop_country":"PL","stop_timezone":"CET","stop_lat":54.355523,"stop_lon":18.643807,"location_type":1,"stop_name_romanized":"","stop_name_alt":"","stop_cityname":"Gdańsk","stop_cityname_romanized":"Gdańsk","stop_cityname_alt":""},"Gdynia Gł.":{"stop_id":"Gdynia Gł.","stop_name":"Gdynia Gł.","stop_country":"PL","stop_timezone":"CET","stop_lat":54.520844,"stop_lon":18.529555,"location_type":1,"stop_name_romanized":"","stop_name_alt":"","stop_cityname":"Gdynia","stop_cityname_romanized":"Gdynia","stop_cityname_alt":""},"Genova Piazza Principe / Zêna":{"stop_id":"Genova Piazza Principe / Zêna","stop_name":"Genova Piazza Principe","stop_country":"IT","stop_timezone":"CET","stop_lat":44.417508,"stop_lon":8.922073,"location_type":1,"stop_name_romanized":"","stop_name_alt":"","stop_cityname":"Genova","stop_cityname_romanized":"Genova","stop_cityname_alt":"Zêna"},"Gheorgheni":{"stop_id":"Gheorgheni","stop_name":"Gheorgheni","stop_country":"RO","stop_timezone":"EET","stop_lat":46.7210211317219,"stop_lon":25.5741288409732,"location_type":1,"stop_name_romanized":"","stop_name_alt":"","stop_cityname":"Gheorgheni","stop_cityname_romanized":"Gheorgheni","stop_cityname_alt":"Gyergyószentmiklós"},"Gießen":{"stop_id":"Gießen","stop_name":"Gießen","stop_country":"DE","stop_timezone":"CET","stop_lat":50.5799738768776,"stop_lon":8.66292791755846,"location_type":1,"stop_name_romanized":"","stop_name_alt":"","stop_cityname":"Gießen","stop_cityname_romanized":"Gießen","stop_cityname_alt":""},"Giurgiu Nord":{"stop_id":"Giurgiu Nord","stop_name":"Giurgiu Nord","stop_country":"RO","stop_timezone":"EET","stop_lat":43.9239822774964,"stop_lon":25.9651525698556,"location_type":1,"stop_name_romanized":"","stop_name_alt":"","stop_cityname":"Giurgiu","stop_cityname_romanized":"Giurgiu","stop_cityname_alt":""},"Glasgow Central":{"stop_id":"Glasgow Central","stop_name":"Glasgow Central","stop_country":"UK","stop_timezone":"GMT","stop_lat":55.858583,"stop_lon":-4.258379,"location_type":1,"stop_name_romanized":"","stop_name_alt":"","stop_cityname":"Glasgow","stop_cityname_romanized":"Glasgow","stop_cityname_alt":""},"Gliwice":{"stop_id":"Gliwice","stop_name":"Gliwice","stop_country":"PL","stop_timezone":"CET","stop_lat":50.30111,"stop_lon":18.677157,"location_type":1,"stop_name_romanized":"","stop_name_alt":"","stop_cityname":"Gliwice","stop_cityname_romanized":"Gliwice","stop_cityname_alt":""},"Gorna Oryahovitsa":{"stop_id":"Gorna Oryahovitsa","stop_name":"Горна Оряховица","stop_country":"BG","stop_timezone":"EET","stop_lat":43.140051,"stop_lon":25.681732,"location_type":1,"stop_name_romanized":"Gorna Oryahovitsa","stop_name_alt":"","stop_cityname":"Горна Оряховица","stop_cityname_romanized":"Горна Оряховица","stop_cityname_alt":""},"Göteborg C":{"stop_id":"Göteborg C","stop_name":"Göteborg C","stop_country":"SE","stop_timezone":"CET","stop_lat":57.70918022,"stop_lon":11.9729995,"location_type":1,"stop_name_romanized":"","stop_name_alt":"","stop_cityname":"Göteborg","stop_cityname_romanized":"Göteborg","stop_cityname_alt":""},"Göttingen":{"stop_id":"Göttingen","stop_name":"Göttingen","stop_country":"DE","stop_timezone":"CET","stop_lat":51.536631,"stop_lon":9.926731,"location_type":1,"stop_name_romanized":"","stop_name_alt":"","stop_cityname":"Göttingen","stop_cityname_romanized":"Göttingen","stop_cityname_alt":""},"Graz Hbf":{"stop_id":"Graz Hbf","stop_name":"Graz Hbf","stop_country":"AT","stop_timezone":"CET","stop_lat":47.072297,"stop_lon":15.416437,"location_type":1,"stop_name_romanized":"","stop_name_alt":"","stop_cityname":"Graz","stop_cityname_romanized":"Graz","stop_cityname_alt":""},"Grosseto":{"stop_id":"Grosseto","stop_name":"Grosseto","stop_country":"IT","stop_timezone":"CET","stop_lat":42.7675223302232,"stop_lon":11.107028301311,"location_type":1,"stop_name_romanized":"","stop_name_alt":"","stop_cityname":"Grosseto","stop_cityname_romanized":"Grosseto","stop_cityname_alt":""},"Győr":{"stop_id":"Győr","stop_name":"Győr","stop_country":"HU","stop_timezone":"CET","stop_lat":47.681986,"stop_lon":17.634795,"location_type":1,"stop_name_romanized":"","stop_name_alt":"","stop_cityname":"Győr","stop_cityname_romanized":"Győr","stop_cityname_alt":""},"Halle/Saale Hbf":{"stop_id":"Halle/Saale Hbf","stop_name":"Halle/Saale Hbf","stop_country":"DE","stop_timezone":"CET","stop_lat":51.477079,"stop_lon":11.98699,"location_type":1,"stop_name_romanized":"","stop_name_alt":"","stop_cityname":"Halle","stop_cityname_romanized":"Halle","stop_cityname_alt":""},"Hamar":{"stop_id":"Hamar","stop_name":"Hamar","stop_country":"NO","stop_timezone":"CET","stop_lat":60.791431,"stop_lon":11.077083,"location_type":1,"stop_name_romanized":"","stop_name_alt":"","stop_cityname":"Hamar","stop_cityname_romanized":"Hamar","stop_cityname_alt":""},"Hamburg Altona":{"stop_id":"Hamburg Altona","stop_name":"Hamburg Altona","stop_country":"DE","stop_timezone":"CET","stop_lat":53.551846,"stop_lon":9.934442,"location_type":1,"stop_name_romanized":"","stop_name_alt":"","stop_cityname":"Hamburg","stop_cityname_romanized":"Hamburg","stop_cityname_alt":""},"Hamburg Harburg":{"stop_id":"Hamburg Harburg","stop_name":"Hamburg Harburg","stop_country":"DE","stop_timezone":"CET","stop_lat":53.45696,"stop_lon":9.991454,"location_type":1,"stop_name_romanized":"","stop_name_alt":"","stop_cityname":"Hamburg","stop_cityname_romanized":"Hamburg","stop_cityname_alt":""},"Hamburg Hbf":{"stop_id":"Hamburg Hbf","stop_name":"Hamburg Hbf","stop_country":"DE","stop_timezone":"CET","stop_lat":53.552305,"stop_lon":10.006334,"location_type":1,"stop_name_romanized":"","stop_name_alt":"","stop_cityname":"Hamburg","stop_cityname_romanized":"Hamburg","stop_cityname_alt":""},"Hannover Hbf":{"stop_id":"Hannover Hbf","stop_name":"Hannover Hbf","stop_country":"DE","stop_timezone":"CET","stop_lat":52.376726,"stop_lon":9.74095,"location_type":1,"stop_name_romanized":"","stop_name_alt":"","stop_cityname":"Hannover","stop_cityname_romanized":"Hannover","stop_cityname_alt":""},"Hässleholm C":{"stop_id":"Hässleholm C","stop_name":"Hässleholm C","stop_country":"SE","stop_timezone":"CET","stop_lat":56.15750007,"stop_lon":13.76306164,"location_type":1,"stop_name_romanized":"","stop_name_alt":"","stop_cityname":"Hässleholm","stop_cityname_romanized":"Hässleholm","stop_cityname_alt":""},"Härnösand":{"stop_id":"Härnösand","stop_name":"Härnösand","stop_country":"SE","stop_timezone":"CET","stop_lat":62.6352825757231,"stop_lon":17.929044606609,"location_type":1,"stop_name_romanized":"","stop_name_alt":"","stop_cityname":"Härnösand","stop_cityname_romanized":"Härnösand","stop_cityname_alt":""},"Hegyeshalom":{"stop_id":"Hegyeshalom","stop_name":"Hegyeshalom","stop_country":"HU","stop_timezone":"CET","stop_lat":47.913976,"stop_lon":17.145297,"location_type":1,"stop_name_romanized":"","stop_name_alt":"","stop_cityname":"Hegyeshalom","stop_cityname_romanized":"Hegyeshalom","stop_cityname_alt":""},"Heidelberg Hbf":{"stop_id":"Heidelberg Hbf","stop_name":"Heidelberg Hbf","stop_country":"DE","stop_timezone":"CET","stop_lat":49.403582,"stop_lon":8.67548,"location_type":1,"stop_name_romanized":"","stop_name_alt":"","stop_cityname":"Heidelberg","stop_cityname_romanized":"Heidelberg","stop_cityname_alt":""},"Hel":{"stop_id":"Hel","stop_name":"Hel","stop_country":"PL","stop_timezone":"CET","stop_lat":54.611042,"stop_lon":18.800894,"location_type":1,"stop_name_romanized":"","stop_name_alt":"","stop_cityname":"Hel","stop_cityname_romanized":"Hel","stop_cityname_alt":""},"Helsingborg C":{"stop_id":"Helsingborg C","stop_name":"Helsingborg C","stop_country":"SE","stop_timezone":"CET","stop_lat":56.04375695,"stop_lon":12.69495755,"location_type":1,"stop_name_romanized":"","stop_name_alt":"","stop_cityname":"Helsingborg","stop_cityname_romanized":"Helsingborg","stop_cityname_alt":""},"Helsinki / Helsingfors":{"stop_id":"Helsinki / Helsingfors","stop_name":"Helsinki","stop_country":"FI","stop_timezone":"EET","stop_lat":60.171742,"stop_lon":24.941443,"location_type":1,"stop_name_romanized":"","stop_name_alt":"Helsingfors","stop_cityname":"Helsinki","stop_cityname_romanized":"Helsinki","stop_cityname_alt":"Helsingfors"},"Hendaye / Hendaia":{"stop_id":"Hendaye / Hendaia","stop_name":"Hendaye","stop_country":"FR","stop_timezone":"CET","stop_lat":43.353165,"stop_lon":-1.782095,"location_type":1,"stop_name_romanized":"","stop_name_alt":"Hendaia","stop_cityname":"Hendaye","stop_cityname_romanized":"Hendaye","stop_cityname_alt":"Hendaia"},"Høje Taastrup":{"stop_id":"Høje Taastrup","stop_name":"Høje Taastrup","stop_country":"DK","stop_timezone":"CET","stop_lat":55.6489874670733,"stop_lon":12.2699993800055,"location_type":1,"stop_name_romanized":"","stop_name_alt":"","stop_cityname":"København","stop_cityname_romanized":"København","stop_cityname_alt":""},"Humenné":{"stop_id":"Humenné","stop_name":"Humenné","stop_country":"SK","stop_timezone":"CET","stop_lat":48.930165,"stop_lon":21.901166,"location_type":1,"stop_name_romanized":"","stop_name_alt":"","stop_cityname":"Humenné","stop_cityname_romanized":"Humenné","stop_cityname_alt":""},"Iași":{"stop_id":"Iași","stop_name":"Iași","stop_country":"RO","stop_timezone":"EET","stop_lat":47.15723256,"stop_lon":27.6034533,"location_type":1,"stop_name_romanized":"","stop_name_alt":"","stop_cityname":"Iași","stop_cityname_romanized":"Iași","stop_cityname_alt":""},"Innichen / San Candido":{"stop_id":"Innichen / San Candido","stop_name":"Innichen","stop_country":"IT","stop_timezone":"CET","stop_lat":46.732734,"stop_lon":12.272038,"location_type":1,"stop_name_romanized":"","stop_name_alt":"San Candido","stop_cityname":"Innichen","stop_cityname_romanized":"Innichen","stop_cityname_alt":"San Candido"},"Innsbruck Hbf":{"stop_id":"Innsbruck Hbf","stop_name":"Innsbruck Hbf","stop_country":"AT","stop_timezone":"CET","stop_lat":47.263366751634,"stop_lon":11.4011125024768,"location_type":1,"stop_name_romanized":"","stop_name_alt":"","stop_cityname":"Innsbruck","stop_cityname_romanized":"Innsbruck","stop_cityname_alt":""},"Inverness / Inbhir Nis":{"stop_id":"Inverness / Inbhir Nis","stop_name":"Inverness","stop_country":"UK","stop_timezone":"GMT","stop_lat":57.47976,"stop_lon":-4.223618,"location_type":1,"stop_name_romanized":"","stop_name_alt":"Inbhir Nis","stop_cityname":"Inverness","stop_cityname_romanized":"Inverness","stop_cityname_alt":"Inbhir Nis"},"Iskar":{"stop_id":"Iskar","stop_name":"Искър","stop_country":"BG","stop_timezone":"EET","stop_lat":42.664656,"stop_lon":23.412774,"location_type":1,"stop_name_romanized":"Iskar","stop_name_alt":"","stop_cityname":"Искър","stop_cityname_romanized":"Iskar","stop_cityname_alt":""},"Isparta":{"stop_id":"Isparta","stop_name":"Isparta","stop_country":"TR","stop_timezone":"TRT","stop_lat":37.76299425,"stop_lon":30.5530818,"location_type":1,"stop_name_romanized":"","stop_name_alt":"","stop_cityname":"Isparta","stop_cityname_romanized":"Isparta","stop_cityname_alt":""},"İstanbul Halkalı":{"stop_id":"İstanbul Halkalı","stop_name":"İstanbul Halkalı","stop_country":"TR","stop_timezone":"TRT","stop_lat":41.018489,"stop_lon":28.766156,"location_type":1,"stop_name_romanized":"","stop_name_alt":"","stop_cityname":"İstanbul","stop_cityname_romanized":"İstanbul","stop_cityname_alt":""},"İstanbul Pendik":{"stop_id":"İstanbul Pendik","stop_name":"İstanbul Pendik","stop_country":"TR","stop_timezone":"TRT","stop_lat":40.880001,"stop_lon":29.231114,"location_type":1,"stop_name_romanized":"","stop_name_alt":"","stop_cityname":"İstanbul","stop_cityname_romanized":"İstanbul","stop_cityname_alt":""},"İstanbul Sögütlücesme":{"stop_id":"İstanbul Sögütlücesme","stop_name":"İstanbul Sögütlücesme","stop_country":"TR","stop_timezone":"TRT","stop_lat":40.991,"stop_lon":29.037657,"location_type":1,"stop_name_romanized":"","stop_name_alt":"","stop_cityname":"İstanbul","stop_cityname_romanized":"İstanbul","stop_cityname_alt":""},"Ivano-Frankivsk":{"stop_id":"Ivano-Frankivsk","stop_name":"Івано-Франківськ","stop_country":"UA","stop_timezone":"EET","stop_lat":48.92529434,"stop_lon":24.72400887,"location_type":1,"stop_name_romanized":"Ivano-Frankivsk","stop_name_alt":"","stop_cityname":"Івано-Франківськ","stop_cityname_romanized":"Ivano-Frankivsk","stop_cityname_alt":""},"Izyum":{"stop_id":"Izyum","stop_name":"Ізюм","stop_country":"UA","stop_timezone":"EET","stop_lat":49.216602788686,"stop_lon":37.3027393388615,"location_type":1,"stop_name_romanized":"Izyum","stop_name_alt":"","stop_cityname":"Ізюм","stop_cityname_romanized":"Izyum","stop_cityname_alt":""},"İzmir Basmane":{"stop_id":"İzmir Basmane","stop_name":"İzmir Basmane","stop_country":"TR","stop_timezone":"TRT","stop_lat":38.4227055816019,"stop_lon":27.1440828026927,"location_type":1,"stop_name_romanized":"","stop_name_alt":"","stop_cityname":"İzmir","stop_cityname_romanized":"İzmir","stop_cityname_alt":""},"İzmir Çiğli":{"stop_id":"İzmir Çiğli","stop_name":"İzmir Çiğli","stop_country":"TR","stop_timezone":"TRT","stop_lat":38.5183121851884,"stop_lon":27.0473837141077,"location_type":1,"stop_name_romanized":"","stop_name_alt":"","stop_cityname":"İzmir","stop_cityname_romanized":"İzmir","stop_cityname_alt":""},"İzmit":{"stop_id":"İzmit","stop_name":"İzmit","stop_country":"TR","stop_timezone":"TRT","stop_lat":40.76550701,"stop_lon":29.9399905,"location_type":1,"stop_name_romanized":"","stop_name_alt":"","stop_cityname":"Izmit","stop_cityname_romanized":"Izmit","stop_cityname_alt":""},"Jambol":{"stop_id":"Jambol","stop_name":"Ямбол","stop_country":"BG","stop_timezone":"EET","stop_lat":42.495605,"stop_lon":26.491309,"location_type":1,"stop_name_romanized":"Jambol","stop_name_alt":"","stop_cityname":"Ямбол","stop_cityname_romanized":"Ямбол","stop_cityname_alt":""},"Jelenia Góra":{"stop_id":"Jelenia Góra","stop_name":"Jelenia Góra","stop_country":"PL","stop_timezone":"CET","stop_lat":50.902569,"stop_lon":15.755331,"location_type":1,"stop_name_romanized":"","stop_name_alt":"","stop_cityname":"Jelenia Góra","stop_cityname_romanized":"Jelenia Góra","stop_cityname_alt":""},"Jenbach":{"stop_id":"Jenbach","stop_name":"Jenbach","stop_country":"AT","stop_timezone":"CET","stop_lat":47.388448,"stop_lon":11.778454,"location_type":1,"stop_name_romanized":"","stop_name_alt":"","stop_cityname":"Jenbach","stop_cityname_romanized":"Jenbach","stop_cityname_alt":""},"Kalush":{"stop_id":"Kalush","stop_name":"Калуш","stop_country":"UA","stop_timezone":"EET","stop_lat":49.01308015,"stop_lon":24.3486009,"location_type":1,"stop_name_romanized":"Kalush","stop_name_alt":"","stop_cityname":"Калуш","stop_cityname_romanized":"Kalush","stop_cityname_alt":""},"Kamianets-Podilskyi":{"stop_id":"Kamianets-Podilskyi","stop_name":"Кам'янець-Подільський","stop_country":"UA","stop_timezone":"EET","stop_lat":48.6882688692958,"stop_lon":26.6016969201348,"location_type":1,"stop_name_romanized":"Kamianets-Podilskyi","stop_name_alt":"","stop_cityname":"Кам'янець-Подільський","stop_cityname_romanized":"Kamianets-Podilskyi","stop_cityname_alt":""},"Kapıkule":{"stop_id":"Kapıkule","stop_name":"Kapıkule","stop_country":"TR","stop_timezone":"TRT","stop_lat":41.719162,"stop_lon":26.361298,"location_type":1,"stop_name_romanized":"","stop_name_alt":"","stop_cityname":"Kapıkule","stop_cityname_romanized":"Kapıkule","stop_cityname_alt":""},"Karlovac":{"stop_id":"Karlovac","stop_name":"Karlovac","stop_country":"HR","stop_timezone":"CET","stop_lat":45.500106,"stop_lon":15.544983,"location_type":1,"stop_name_romanized":"","stop_name_alt":"","stop_cityname":"Karlovac","stop_cityname_romanized":"Karlovac","stop_cityname_alt":""},"Karlsruhe Hbf":{"stop_id":"Karlsruhe Hbf","stop_name":"Karlsruhe Hbf","stop_country":"DE","stop_timezone":"CET","stop_lat":48.993515,"stop_lon":8.402181,"location_type":1,"stop_name_romanized":"","stop_name_alt":"","stop_cityname":"Karlsruhe","stop_cityname_romanized":"Karlsruhe","stop_cityname_alt":""},"Karpaty":{"stop_id":"Karpaty","stop_name":"Карпати","stop_country":"UA","stop_timezone":"EET","stop_lat":48.52463149,"stop_lon":22.87752327,"location_type":1,"stop_name_romanized":"Karpaty","stop_name_alt":"","stop_cityname":"Карпати","stop_cityname_romanized":"Karpaty","stop_cityname_alt":""},"Kars":{"stop_id":"Kars","stop_name":"Kars","stop_country":"TR","stop_timezone":"TRT","stop_lat":40.605282,"stop_lon":43.106386,"location_type":1,"stop_name_romanized":"","stop_name_alt":"","stop_cityname":"Kars","stop_cityname_romanized":"Kars","stop_cityname_alt":""},"Kastrup Lufthavn":{"stop_id":"Kastrup Lufthavn","stop_name":"Kastrup Lufthavn","stop_country":"DK","stop_timezone":"CET","stop_lat":55.629609,"stop_lon":12.649378,"location_type":1,"stop_name_romanized":"","stop_name_alt":"","stop_cityname":"København","stop_cityname_romanized":"København","stop_cityname_alt":""},"Katowice":{"stop_id":"Katowice","stop_name":"Katowice","stop_country":"PL","stop_timezone":"CET","stop_lat":50.2577212445181,"stop_lon":19.0174090442619,"location_type":1,"stop_name_romanized":"","stop_name_alt":"","stop_cityname":"Katowice","stop_cityname_romanized":"Katowice","stop_cityname_alt":""},"Katowice Ligota":{"stop_id":"Katowice Ligota","stop_name":"Katowice Ligota","stop_country":"PL","stop_timezone":"CET","stop_lat":50.2262723909897,"stop_lon":18.9777532324416,"location_type":1,"stop_name_romanized":"","stop_name_alt":"","stop_cityname":"Katowice","stop_cityname_romanized":"Katowice","stop_cityname_alt":""},"Kayseri":{"stop_id":"Kayseri","stop_name":"Kayseri","stop_country":"TR","stop_timezone":"TRT","stop_lat":38.7303526466784,"stop_lon":35.4778504378571,"location_type":1,"stop_name_romanized":"","stop_name_alt":"","stop_cityname":"Kayseri","stop_cityname_romanized":"Kayseri","stop_cityname_alt":""},"Kemijärvi":{"stop_id":"Kemijärvi","stop_name":"Kemijärvi","stop_country":"FI","stop_timezone":"EET","stop_lat":66.724114,"stop_lon":27.403634,"location_type":1,"stop_name_romanized":"","stop_name_alt":"","stop_cityname":"Kemijärvi","stop_cityname_romanized":"Kemijärvi","stop_cityname_alt":""},"Kharkiv":{"stop_id":"Kharkiv","stop_name":"Харків","stop_country":"UA","stop_timezone":"EET","stop_lat":49.989391,"stop_lon":36.203974,"location_type":1,"stop_name_romanized":"Kharkiv","stop_name_alt":"","stop_cityname":"Харків","stop_cityname_romanized":"Kharkiv","stop_cityname_alt":""},"Kherson":{"stop_id":"Kherson","stop_name":"Херсо́н","stop_country":"UA","stop_timezone":"EET","stop_lat":46.63583843,"stop_lon":32.61462583,"location_type":1,"stop_name_romanized":"Kherson","stop_name_alt":"","stop_cityname":"Херсо́н","stop_cityname_romanized":"Kherson","stop_cityname_alt":""},"Khmelnytskyi":{"stop_id":"Khmelnytskyi","stop_name":"Хмельницький","stop_country":"UA","stop_timezone":"EET","stop_lat":49.416194,"stop_lon":27.010427,"location_type":1,"stop_name_romanized":"Khmelnytskyi","stop_name_alt":"","stop_cityname":"Хмельницький","stop_cityname_romanized":"Khmelnytskyi","stop_cityname_alt":""},"Kielce":{"stop_id":"Kielce","stop_name":"Kielce","stop_country":"PL","stop_timezone":"CET","stop_lat":50.874208,"stop_lon":20.618117,"location_type":1,"stop_name_romanized":"","stop_name_alt":"","stop_cityname":"Kielce","stop_cityname_romanized":"Kielce","stop_cityname_alt":""},"Kiruna / Giron":{"stop_id":"Kiruna / Giron","stop_name":"Kiruna","stop_country":"SE","stop_timezone":"CET","stop_lat":67.8696372024293,"stop_lon":20.2053244189105,"location_type":1,"stop_name_romanized":"","stop_name_alt":"Giron","stop_cityname":"Kiruna","stop_cityname_romanized":"Kiruna","stop_cityname_alt":"Giron"},"Kırıkkale":{"stop_id":"Kırıkkale","stop_name":"Kırıkkale","stop_country":"TR","stop_timezone":"TRT","stop_lat":39.8384116907003,"stop_lon":33.5028390304324,"location_type":1,"stop_name_romanized":"","stop_name_alt":"","stop_cityname":"Kırıkkale","stop_cityname_romanized":"Kırıkkale","stop_cityname_alt":""},"Kitzbühel":{"stop_id":"Kitzbühel","stop_name":"Kitzbühel","stop_country":"AT","stop_timezone":"CET","stop_lat":47.454109,"stop_lon":12.391046,"location_type":1,"stop_name_romanized":"","stop_name_alt":"","stop_cityname":"Kitzbühel","stop_cityname_romanized":"Kitzbühel","stop_cityname_alt":""},"Klagenfurt Hbf":{"stop_id":"Klagenfurt Hbf","stop_name":"Klagenfurt Hbf","stop_country":"AT","stop_timezone":"CET","stop_lat":46.615584,"stop_lon":14.313569,"location_type":1,"stop_name_romanized":"","stop_name_alt":"","stop_cityname":"Klagenfurt","stop_cityname_romanized":"Klagenfurt","stop_cityname_alt":""},"Knin":{"stop_id":"Knin","stop_name":"Knin","stop_country":"HR","stop_timezone":"CET","stop_lat":44.0372978949344,"stop_lon":16.1981230882896,"location_type":1,"stop_name_romanized":"","stop_name_alt":"","stop_cityname":"Knin","stop_cityname_romanized":"Knin","stop_cityname_alt":""},"Koblenz Hbf":{"stop_id":"Koblenz Hbf","stop_name":"Koblenz Hbf","stop_country":"DE","stop_timezone":"CET","stop_lat":50.351088,"stop_lon":7.58863,"location_type":1,"stop_name_romanized":"","stop_name_alt":"","stop_cityname":"Koblenz","stop_cityname_romanized":"Koblenz","stop_cityname_alt":""},"Kolari":{"stop_id":"Kolari","stop_name":"Kolari","stop_country":"FI","stop_timezone":"EET","stop_lat":67.3489608987037,"stop_lon":23.83574551707,"location_type":1,"stop_name_romanized":"","stop_name_alt":"","stop_cityname":"Kolari","stop_cityname_romanized":"Kolari","stop_cityname_alt":""},"Kolding":{"stop_id":"Kolding","stop_name":"Kolding","stop_country":"DK","stop_timezone":"CET","stop_lat":55.4908813078978,"stop_lon":9.48180197945989,"location_type":1,"stop_name_romanized":"","stop_name_alt":"","stop_cityname":"Kolding","stop_cityname_romanized":"Kolding","stop_cityname_alt":""},"København Ørestad":{"stop_id":"København Ørestad","stop_name":"København Ørestad","stop_country":"DK","stop_timezone":"CET","stop_lat":55.6285456239122,"stop_lon":12.5794877940902,"location_type":1,"stop_name_romanized":"","stop_name_alt":"","stop_cityname":"København","stop_cityname_romanized":"København","stop_cityname_alt":""},"Köln Hbf":{"stop_id":"Köln Hbf","stop_name":"Köln Hbf","stop_country":"DE","stop_timezone":"CET","stop_lat":50.943209,"stop_lon":6.958598,"location_type":1,"stop_name_romanized":"","stop_name_alt":"","stop_cityname":"Köln","stop_cityname_romanized":"Köln","stop_cityname_alt":""},"Köln Messe/Deutz":{"stop_id":"Köln Messe/Deutz","stop_name":"Köln Messe/Deutz","stop_country":"DE","stop_timezone":"CET","stop_lat":50.9411301310303,"stop_lon":6.97423204224454,"location_type":1,"stop_name_romanized":"","stop_name_alt":"","stop_cityname":"Köln","stop_cityname_romanized":"Köln","stop_cityname_alt":""},"Köln Ehrenfeld":{"stop_id":"Köln Ehrenfeld","stop_name":"Köln Ehrenfeld","stop_country":"DE","stop_timezone":"CET","stop_lat":50.9517986144397,"stop_lon":6.91841384051822,"location_type":1,"stop_name_romanized":"","stop_name_alt":"","stop_cityname":"Köln","stop_cityname_romanized":"Köln","stop_cityname_alt":""},"Kołobrzeg":{"stop_id":"Kołobrzeg","stop_name":"Kołobrzeg","stop_country":"PL","stop_timezone":"CET","stop_lat":54.1823784404536,"stop_lon":15.5720934459827,"location_type":1,"stop_name_romanized":"","stop_name_alt":"","stop_cityname":"Kołobrzeg","stop_cityname_romanized":"Kołobrzeg","stop_cityname_alt":""},"Kongsberg":{"stop_id":"Kongsberg","stop_name":"Kongsberg","stop_country":"NO","stop_timezone":"CET","stop_lat":59.6724787393115,"stop_lon":9.65146538193791,"location_type":1,"stop_name_romanized":"","stop_name_alt":"","stop_cityname":"Kongsberg","stop_cityname_romanized":"Kongsberg","stop_cityname_alt":""},"Konotop":{"stop_id":"Konotop","stop_name":"Konotop","stop_country":"PL","stop_timezone":"CET","stop_lat":52.870002,"stop_lon":19.102248,"location_type":1,"stop_name_romanized":"","stop_name_alt":"","stop_cityname":"Konotop","stop_cityname_romanized":"Konotop","stop_cityname_alt":""},"Konya":{"stop_id":"Konya","stop_name":"Konya","stop_country":"TR","stop_timezone":"TRT","stop_lat":47.600876,"stop_lon":21.237438,"location_type":1,"stop_name_romanized":"","stop_name_alt":"","stop_cityname":"Konya","stop_cityname_romanized":"Konya","stop_cityname_alt":""},"Koper":{"stop_id":"Koper","stop_name":"Koper","stop_country":"SI","stop_timezone":"CET","stop_lat":45.539128,"stop_lon":13.738313,"location_type":1,"stop_name_romanized":"","stop_name_alt":"","stop_cityname":"Koper","stop_cityname_romanized":"Koper","stop_cityname_alt":""},"Korosten":{"stop_id":"Korosten","stop_name":"Коростень","stop_country":"UA","stop_timezone":"EET","stop_lat":50.94876151,"stop_lon":28.64192046,"location_type":1,"stop_name_romanized":"Korosten","stop_name_alt":"","stop_cityname":"Коростень","stop_cityname_romanized":"Korosten","stop_cityname_alt":""},"Košice":{"stop_id":"Košice","stop_name":"Košice","stop_country":"SK","stop_timezone":"CET","stop_lat":48.722918,"stop_lon":21.268721,"location_type":1,"stop_name_romanized":"","stop_name_alt":"","stop_cityname":"Košice","stop_cityname_romanized":"Košice","stop_cityname_alt":""},"Kostrzyn":{"stop_id":"Kostrzyn","stop_name":"Kostrzyn","stop_country":"PL","stop_timezone":"CET","stop_lat":52.5913859347633,"stop_lon":14.6472142794284,"location_type":1,"stop_name_romanized":"","stop_name_alt":"","stop_cityname":"Kostrzyn","stop_cityname_romanized":"Kostrzyn","stop_cityname_alt":""},"Koszalin":{"stop_id":"Koszalin","stop_name":"Koszalin","stop_country":"PL","stop_timezone":"CET","stop_lat":54.191254,"stop_lon":16.169931,"location_type":1,"stop_name_romanized":"","stop_name_alt":"","stop_cityname":"Koszalin","stop_cityname_romanized":"Koszalin","stop_cityname_alt":""},"Kovel":{"stop_id":"Kovel","stop_name":"Ковель","stop_country":"UA","stop_timezone":"EET","stop_lat":51.22173228,"stop_lon":24.71210205,"location_type":1,"stop_name_romanized":"Kovel","stop_name_alt":"","stop_cityname":"Ковель","stop_cityname_romanized":"Kovel","stop_cityname_alt":""},"Kraków Gł.":{"stop_id":"Kraków Gł.","stop_name":"Kraków Gł.","stop_country":"PL","stop_timezone":"CET","stop_lat":53.651587,"stop_lon":12.264774,"location_type":1,"stop_name_romanized":"","stop_name_alt":"","stop_cityname":"Kraków","stop_cityname_romanized":"Kraków","stop_cityname_alt":""},"Kramatorsk":{"stop_id":"Kramatorsk","stop_name":"Краматорськ","stop_country":"UA","stop_timezone":"EET","stop_lat":48.7270618209451,"stop_lon":37.5428610770735,"location_type":1,"stop_name_romanized":"Kramatorsk","stop_name_alt":"","stop_cityname":"Краматорськ","stop_cityname_romanized":"Kramatorsk","stop_cityname_alt":""},"Kremenchuk":{"stop_id":"Kremenchuk","stop_name":"Кременчук","stop_country":"UA","stop_timezone":"EET","stop_lat":49.06634055,"stop_lon":33.41375111,"location_type":1,"stop_name_romanized":"Kremenchuk","stop_name_alt":"","stop_cityname":"Кременчук","stop_cityname_romanized":"Kremenchuk","stop_cityname_alt":""},"Kristiansand":{"stop_id":"Kristiansand","stop_name":"Kristiansand","stop_country":"NO","stop_timezone":"CET","stop_lat":58.145645,"stop_lon":7.987275,"location_type":1,"stop_name_romanized":"","stop_name_alt":"","stop_cityname":"Kristiansand","stop_cityname_romanized":"Kristiansand","stop_cityname_alt":""},"Krlovac":{"stop_id":"Krlovac","stop_name":"Krlovac","stop_country":"HR","stop_timezone":"CET","stop_lat":45.500106,"stop_lon":15.544983,"location_type":1,"stop_name_romanized":"","stop_name_alt":"","stop_cityname":"Krlovac","stop_cityname_romanized":"Krlovac","stop_cityname_alt":""},"Kropyvnytskyi":{"stop_id":"Kropyvnytskyi","stop_name":"Кропивницький","stop_country":"UA","stop_timezone":"EET","stop_lat":48.5236981810244,"stop_lon":32.2607699587284,"location_type":1,"stop_name_romanized":"Kropyvnytskyi","stop_name_alt":"","stop_cityname":"Кропивницький","stop_cityname_romanized":"Kropyvnytskyi","stop_cityname_alt":""},"Kryvyi Rih":{"stop_id":"Kryvyi Rih","stop_name":"Кривий Ріг","stop_country":"UA","stop_timezone":"EET","stop_lat":47.91378345,"stop_lon":33.36655585,"location_type":1,"stop_name_romanized":"Kryvyi Rih","stop_name_alt":"","stop_cityname":"Кривий Ріг","stop_cityname_romanized":"Kryvyi Rih","stop_cityname_alt":""},"Krzyz":{"stop_id":"Krzyz","stop_name":"Krzyz","stop_country":"PL","stop_timezone":"CET","stop_lat":52.877418,"stop_lon":16.017834,"location_type":1,"stop_name_romanized":"","stop_name_alt":"","stop_cityname":"Krzyz","stop_cityname_romanized":"Krzyz","stop_cityname_alt":""},"Kufstein":{"stop_id":"Kufstein","stop_name":"Kufstein","stop_country":"AT","stop_timezone":"CET","stop_lat":47.583702,"stop_lon":12.166064,"location_type":1,"stop_name_romanized":"","stop_name_alt":"","stop_cityname":"Kufstein","stop_cityname_romanized":"Kufstein","stop_cityname_alt":""},"Kurtalan":{"stop_id":"Kurtalan","stop_name":"Kurtalan","stop_country":"TR","stop_timezone":"TRT","stop_lat":37.928093715408,"stop_lon":41.6972206884991,"location_type":1,"stop_name_romanized":"","stop_name_alt":"","stop_cityname":"Kurtalan","stop_cityname_romanized":"Kurtalan","stop_cityname_alt":"Misirc"},"Kyiv Pasazhyrskyi":{"stop_id":"Kyiv Pasazhyrskyi","stop_name":"Київ Пасажирський","stop_country":"UA","stop_timezone":"EET","stop_lat":50.4406149956888,"stop_lon":30.4899830672985,"location_type":1,"stop_name_romanized":"Kyiv Pasazhyrskyi","stop_name_alt":"","stop_cityname":"Київ","stop_cityname_romanized":"Kyiv","stop_cityname_alt":"Киев"},"Kyiv Sviatoshyn":{"stop_id":"Kyiv Sviatoshyn","stop_name":"Київ Святошин","stop_country":"UA","stop_timezone":"EET","stop_lat":50.4574574238952,"stop_lon":30.3883030305956,"location_type":1,"stop_name_romanized":"Kyiv Sviatoshyn","stop_name_alt":"","stop_cityname":"Київ","stop_cityname_romanized":"Kyiv","stop_cityname_alt":"Киев"},"La Spezia Centrale":{"stop_id":"La Spezia Centrale","stop_name":"La Spezia Centrale","stop_country":"IT","stop_timezone":"CET","stop_lat":44.11169,"stop_lon":9.813674,"location_type":1,"stop_name_romanized":"","stop_name_alt":"","stop_cityname":"La Spezia","stop_cityname_romanized":"La Spezia","stop_cityname_alt":""},"Lamezia Terme Centrale":{"stop_id":"Lamezia Terme Centrale","stop_name":"Lamezia Terme Centrale","stop_country":"IT","stop_timezone":"CET","stop_lat":38.9212447087182,"stop_lon":16.2554697901588,"location_type":1,"stop_name_romanized":"","stop_name_alt":"","stop_cityname":"Lamezia Terme","stop_cityname_romanized":"Lamezia Terme","stop_cityname_alt":""},"Laroquebrou / Laròcabrau":{"stop_id":"Laroquebrou / Laròcabrau","stop_name":"Laroquebrou","stop_country":"FR","stop_timezone":"CET","stop_lat":44.9642400164566,"stop_lon":2.19297338188694,"location_type":1,"stop_name_romanized":"","stop_name_alt":"Laròcabrau","stop_cityname":"Laroquebrou","stop_cityname_romanized":"Laroquebrou","stop_cityname_alt":"Laròcabrau"},"Latour-de-Carol / La Tor de Querol":{"stop_id":"Latour-de-Carol / La Tor de Querol","stop_name":"Latour-de-Carol","stop_country":"FR","stop_timezone":"CET","stop_lat":42.4592253628871,"stop_lon":1.90519327061048,"location_type":1,"stop_name_romanized":"","stop_name_alt":"La Tor de Querol","stop_cityname":"Latour-de-Carol","stop_cityname_romanized":"Latour-de-Carol","stop_cityname_alt":"La Tor de Querol"},"Łeba":{"stop_id":"Łeba","stop_name":"Łeba","stop_country":"PL","stop_timezone":"CET","stop_lat":54.7569070590191,"stop_lon":17.553197532589,"location_type":1,"stop_name_romanized":"","stop_name_alt":"","stop_cityname":"Łeba","stop_cityname_romanized":"Łeba","stop_cityname_alt":""},"Lecce":{"stop_id":"Lecce","stop_name":"Lecce","stop_country":"IT","stop_timezone":"CET","stop_lat":40.3459376285052,"stop_lon":18.1658320632876,"location_type":1,"stop_name_romanized":"","stop_name_alt":"","stop_cityname":"Lecce","stop_cityname_romanized":"Lecce","stop_cityname_alt":""},"Leipzig Hbf":{"stop_id":"Leipzig Hbf","stop_name":"Leipzig Hbf","stop_country":"DE","stop_timezone":"CET","stop_lat":51.345474,"stop_lon":12.382064,"location_type":1,"stop_name_romanized":"","stop_name_alt":"","stop_cityname":"Leipzig","stop_cityname_romanized":"Leipzig","stop_cityname_alt":""},"Leszno":{"stop_id":"Leszno","stop_name":"Leszno","stop_country":"PL","stop_timezone":"CET","stop_lat":51.846779124119,"stop_lon":16.5671093734457,"location_type":1,"stop_name_romanized":"","stop_name_alt":"","stop_cityname":"Leszno","stop_cityname_romanized":"Leszno","stop_cityname_alt":""},"Levanger":{"stop_id":"Levanger","stop_name":"Levanger","stop_country":"NO","stop_timezone":"CET","stop_lat":63.7448973750353,"stop_lon":11.3009400790332,"location_type":1,"stop_name_romanized":"","stop_name_alt":"","stop_cityname":"Levanger","stop_cityname_romanized":"Levanger","stop_cityname_alt":""},"Levanto":{"stop_id":"Levanto","stop_name":"Levanto","stop_country":"IT","stop_timezone":"CET","stop_lat":44.17411,"stop_lon":9.616141,"location_type":1,"stop_name_romanized":"","stop_name_alt":"","stop_cityname":"Levanto","stop_cityname_romanized":"Levanto","stop_cityname_alt":""},"Liège-Guillemins":{"stop_id":"Liège-Guillemins","stop_name":"Liège-Guillemins","stop_country":"BE","stop_timezone":"CET","stop_lat":50.624358,"stop_lon":5.566483,"location_type":1,"stop_name_romanized":"","stop_name_alt":"","stop_cityname":"Liège","stop_cityname_romanized":"Liège","stop_cityname_alt":""},"Lillehammer":{"stop_id":"Lillehammer","stop_name":"Lillehammer","stop_country":"NO","stop_timezone":"CET","stop_lat":61.1149825005194,"stop_lon":10.4618339591004,"location_type":1,"stop_name_romanized":"","stop_name_alt":"","stop_cityname":"Lillehammer","stop_cityname_romanized":"Lillehammer","stop_cityname_alt":""},"Linköping C":{"stop_id":"Linköping C","stop_name":"Linköping C","stop_country":"SE","stop_timezone":"CET","stop_lat":58.4161969925894,"stop_lon":15.6259934806579,"location_type":1,"stop_name_romanized":"","stop_name_alt":"","stop_cityname":"Linköping","stop_cityname_romanized":"Linköping","stop_cityname_alt":""},"Linz Hbf":{"stop_id":"Linz Hbf","stop_name":"Linz Hbf","stop_country":"AT","stop_timezone":"CET","stop_lat":48.290181,"stop_lon":14.292131,"location_type":1,"stop_name_romanized":"","stop_name_alt":"","stop_cityname":"Linz","stop_cityname_romanized":"Linz","stop_cityname_alt":""},"Livorno Centrale ":{"stop_id":"Livorno Centrale ","stop_name":"Livorno Centrale ","stop_country":"IT","stop_timezone":"CET","stop_lat":43.5544072704678,"stop_lon":10.3363063880101,"location_type":1,"stop_name_romanized":"","stop_name_alt":"","stop_cityname":"Livorno","stop_cityname_romanized":"Livorno","stop_cityname_alt":""},"Ljubljana":{"stop_id":"Ljubljana","stop_name":"Ljubljana","stop_country":"SI","stop_timezone":"CET","stop_lat":46.0583713915628,"stop_lon":14.5124809289823,"location_type":1,"stop_name_romanized":"","stop_name_alt":"","stop_cityname":"Ljubljana","stop_cityname_romanized":"Ljubljana","stop_cityname_alt":""},"Łódź Kaliska":{"stop_id":"Łódź Kaliska","stop_name":"Łódź Kaliska","stop_country":"PL","stop_timezone":"CET","stop_lat":51.757913591514,"stop_lon":19.4308605595609,"location_type":1,"stop_name_romanized":"","stop_name_alt":"","stop_cityname":"Łódź","stop_cityname_romanized":"Łódź","stop_cityname_alt":""},"Lőkösháza":{"stop_id":"Lőkösháza","stop_name":"Lőkösháza","stop_country":"HU","stop_timezone":"CET","stop_lat":46.4321789092179,"stop_lon":21.2378372816945,"location_type":1,"stop_name_romanized":"","stop_name_alt":"","stop_cityname":"Lőkösháza","stop_cityname_romanized":"Lőkösháza","stop_cityname_alt":""},"Lörrach":{"stop_id":"Lörrach","stop_name":"Lörrach","stop_country":"DE","stop_timezone":"CET","stop_lat":47.6150735620253,"stop_lon":7.66529315242441,"location_type":1,"stop_name_romanized":"","stop_name_alt":"","stop_cityname":"Basel","stop_cityname_romanized":"Basel","stop_cityname_alt":""},"London Euston":{"stop_id":"London Euston","stop_name":"London Euston","stop_country":"UK","stop_timezone":"GMT","stop_lat":51.5281742330704,"stop_lon":-0.133080327847079,"location_type":1,"stop_name_romanized":"","stop_name_alt":"","stop_cityname":"London","stop_cityname_romanized":"London","stop_cityname_alt":""},"London Kings Cross":{"stop_id":"London Kings Cross","stop_name":"London Kings Cross","stop_country":"UK","stop_timezone":"GMT","stop_lat":51.530866507933,"stop_lon":-0.12337653945996,"location_type":1,"stop_name_romanized":"","stop_name_alt":"","stop_cityname":"London","stop_cityname_romanized":"London","stop_cityname_alt":""},"London Paddington":{"stop_id":"London Paddington","stop_name":"London Paddington","stop_country":"UK","stop_timezone":"GMT","stop_lat":51.5168611376128,"stop_lon":-0.176900593815373,"location_type":1,"stop_name_romanized":"","stop_name_alt":"","stop_cityname":"London","stop_cityname_romanized":"London","stop_cityname_alt":""},"Lourdes":{"stop_id":"Lourdes","stop_name":"Lourdes","stop_country":"FR","stop_timezone":"CET","stop_lat":43.1003624704419,"stop_lon":-0.0422068109455745,"location_type":1,"stop_name_romanized":"","stop_name_alt":"","stop_cityname":"Lourdes","stop_cityname_romanized":"Lourdes","stop_cityname_alt":""},"Lublin":{"stop_id":"Lublin","stop_name":"Lublin","stop_country":"PL","stop_timezone":"CET","stop_lat":51.231242,"stop_lon":22.568399,"location_type":1,"stop_name_romanized":"","stop_name_alt":"","stop_cityname":"Lublin","stop_cityname_romanized":"Lublin","stop_cityname_alt":""},"Lubny":{"stop_id":"Lubny","stop_name":"Лубни","stop_country":"UA","stop_timezone":"EET","stop_lat":50.020448,"stop_lon":32.975229,"location_type":1,"stop_name_romanized":"Lubny","stop_name_alt":"","stop_cityname":"Лубни","stop_cityname_romanized":"Lubny","stop_cityname_alt":""},"Luleå C":{"stop_id":"Luleå C","stop_name":"Luleå C","stop_country":"SE","stop_timezone":"CET","stop_lat":65.5841742123396,"stop_lon":22.1652706040141,"location_type":1,"stop_name_romanized":"","stop_name_alt":"","stop_cityname":"Luleå","stop_cityname_romanized":"Luleå","stop_cityname_alt":""},"Lund C":{"stop_id":"Lund C","stop_name":"Lund C","stop_country":"SE","stop_timezone":"CET","stop_lat":54.95762285,"stop_lon":9.052251915,"location_type":1,"stop_name_romanized":"","stop_name_alt":"","stop_cityname":"Lund","stop_cityname_romanized":"Lund","stop_cityname_alt":""},"Lüneburg":{"stop_id":"Lüneburg","stop_name":"Lüneburg","stop_country":"DE","stop_timezone":"CET","stop_lat":53.2499373608118,"stop_lon":10.4198821063954,"location_type":1,"stop_name_romanized":"","stop_name_alt":"","stop_cityname":"Lüneburg","stop_cityname_romanized":"Lüneburg","stop_cityname_alt":""},"Lutherstadt Wittenberg Hbf":{"stop_id":"Lutherstadt Wittenberg Hbf","stop_name":"Lutherstadt Wittenberg Hbf","stop_country":"DE","stop_timezone":"CET","stop_lat":51.868558,"stop_lon":12.661765,"location_type":1,"stop_name_romanized":"","stop_name_alt":"","stop_cityname":"Wittenberg","stop_cityname_romanized":"Wittenberg","stop_cityname_alt":""},"Lutsk":{"stop_id":"Lutsk","stop_name":"Луцьк","stop_country":"UA","stop_timezone":"EET","stop_lat":50.7505983,"stop_lon":25.33161953,"location_type":1,"stop_name_romanized":"Lutsk","stop_name_alt":"","stop_cityname":"Луцьк","stop_cityname_romanized":"Lutsk","stop_cityname_alt":""},"Lviv":{"stop_id":"Lviv","stop_name":"Львів","stop_country":"UA","stop_timezone":"EET","stop_lat":49.839846,"stop_lon":23.994196,"location_type":1,"stop_name_romanized":"Lviv","stop_name_alt":"","stop_cityname":"Львів","stop_cityname_romanized":"Lviv","stop_cityname_alt":""},"Lviv Pidzamche":{"stop_id":"Lviv Pidzamche","stop_name":"Львів Підзамче","stop_country":"UA","stop_timezone":"EET","stop_lat":49.8537784416471,"stop_lon":24.043335372108,"location_type":1,"stop_name_romanized":"Lviv Pidzamche","stop_name_alt":"","stop_cityname":"Львів","stop_cityname_romanized":"Lviv","stop_cityname_alt":""},"Lyon-Part-Dieu":{"stop_id":"Lyon-Part-Dieu","stop_name":"Lyon-Part-Dieu","stop_country":"FR","stop_timezone":"CET","stop_lat":45.760568,"stop_lon":4.859991,"location_type":1,"stop_name_romanized":"","stop_name_alt":"","stop_cityname":"Lyon","stop_cityname_romanized":"Lyon","stop_cityname_alt":""},"Magdeburg":{"stop_id":"Magdeburg","stop_name":"Magdeburg","stop_country":"DE","stop_timezone":"CET","stop_lat":52.130495,"stop_lon":11.6269,"location_type":1,"stop_name_romanized":"","stop_name_alt":"","stop_cityname":"Magdeburg","stop_cityname_romanized":"Magdeburg","stop_cityname_alt":""},"Mainz Hbf":{"stop_id":"Mainz Hbf","stop_name":"Mainz Hbf","stop_country":"DE","stop_timezone":"CET","stop_lat":50.001239,"stop_lon":8.258453,"location_type":1,"stop_name_romanized":"","stop_name_alt":"","stop_cityname":"Mainz","stop_cityname_romanized":"Mainz","stop_cityname_alt":""},"Malatya":{"stop_id":"Malatya","stop_name":"Malatya","stop_country":"TR","stop_timezone":"TRT","stop_lat":38.3768034626135,"stop_lon":38.3229480598208,"location_type":1,"stop_name_romanized":"","stop_name_alt":"","stop_cityname":"Malatya","stop_cityname_romanized":"Malatya","stop_cityname_alt":""},"Malmö C":{"stop_id":"Malmö C","stop_name":"Malmö C","stop_country":"SE","stop_timezone":"CET","stop_lat":55.6094416,"stop_lon":13.00084019,"location_type":1,"stop_name_romanized":"","stop_name_alt":"","stop_cityname":"Malmö","stop_cityname_romanized":"Malmö","stop_cityname_alt":""},"Mangalia":{"stop_id":"Mangalia","stop_name":"Mangalia","stop_country":"RO","stop_timezone":"EET","stop_lat":43.8229083360511,"stop_lon":28.5820453283533,"location_type":1,"stop_name_romanized":"","stop_name_alt":"","stop_cityname":"Mangalia","stop_cityname_romanized":"Mangalia","stop_cityname_alt":""},"Manisa":{"stop_id":"Manisa","stop_name":"Manisa","stop_country":"TR","stop_timezone":"TRT","stop_lat":38.6220938910847,"stop_lon":27.4352653238353,"location_type":1,"stop_name_romanized":"","stop_name_alt":"","stop_cityname":"Manisa","stop_cityname_romanized":"Manisa","stop_cityname_alt":""},"Mannheim":{"stop_id":"Mannheim","stop_name":"Mannheim","stop_country":"DE","stop_timezone":"CET","stop_lat":49.4798307802686,"stop_lon":8.47008222934134,"location_type":1,"stop_name_romanized":"","stop_name_alt":"","stop_cityname":"Mannheim","stop_cityname_romanized":"Mannheim","stop_cityname_alt":""},"Maribor":{"stop_id":"Maribor","stop_name":"Maribor","stop_country":"SI","stop_timezone":"CET","stop_lat":46.554870100116,"stop_lon":15.6350488878065,"location_type":1,"stop_name_romanized":"","stop_name_alt":"","stop_cityname":"Maribor","stop_cityname_romanized":"Maribor","stop_cityname_alt":""},"Marseille Saint-Charles":{"stop_id":"Marseille Saint-Charles","stop_name":"Marseille Saint-Charles","stop_country":"FR","stop_timezone":"CET","stop_lat":43.30303,"stop_lon":5.380555,"location_type":1,"stop_name_romanized":"","stop_name_alt":"","stop_cityname":"Marseille","stop_cityname_romanized":"Marseille","stop_cityname_alt":""},"Messina Centrale":{"stop_id":"Messina Centrale","stop_name":"Messina Centrale","stop_country":"IT","stop_timezone":"CET","stop_lat":38.1855834357672,"stop_lon":15.5611722088542,"location_type":1,"stop_name_romanized":"","stop_name_alt":"","stop_cityname":"Messina","stop_cityname_romanized":"Messina","stop_cityname_alt":""},"Mezdra":{"stop_id":"Mezdra","stop_name":"Мездра","stop_country":"BG","stop_timezone":"EET","stop_lat":43.1426611676,"stop_lon":23.7162507873938,"location_type":1,"stop_name_romanized":"Mezdra","stop_name_alt":"","stop_cityname":"Мездра","stop_cityname_romanized":"Мездра","stop_cityname_alt":""},"Michalovce":{"stop_id":"Michalovce","stop_name":"Michalovce","stop_country":"SK","stop_timezone":"CET","stop_lat":48.751685397429,"stop_lon":21.8993349875899,"location_type":1,"stop_name_romanized":"","stop_name_alt":"","stop_cityname":"Michalovce","stop_cityname_romanized":"Michalovce","stop_cityname_alt":""},"Miercurea Ciuc":{"stop_id":"Miercurea Ciuc","stop_name":"Miercurea Ciuc","stop_country":"RO","stop_timezone":"EET","stop_lat":46.3596373519225,"stop_lon":25.7938211258517,"location_type":1,"stop_name_romanized":"","stop_name_alt":"","stop_cityname":"Miercurea Ciuc","stop_cityname_romanized":"Miercurea Ciuc","stop_cityname_alt":"Csíkszereda"},"Milano Centrale":{"stop_id":"Milano Centrale","stop_name":"Milano Centrale","stop_country":"IT","stop_timezone":"CET","stop_lat":45.4872723252958,"stop_lon":9.20511168635183,"location_type":1,"stop_name_romanized":"","stop_name_alt":"","stop_cityname":"Milano","stop_cityname_romanized":"Milano","stop_cityname_alt":""},"Milano Porta Garibaldi":{"stop_id":"Milano Porta Garibaldi","stop_name":"Milano Porta Garibaldi","stop_country":"IT","stop_timezone":"CET","stop_lat":45.484597141117,"stop_lon":9.1877636449028,"location_type":1,"stop_name_romanized":"","stop_name_alt":"","stop_cityname":"Milano","stop_cityname_romanized":"Milano","stop_cityname_alt":""},"Milano Rogoredo":{"stop_id":"Milano Rogoredo","stop_name":"Milano Rogoredo","stop_country":"IT","stop_timezone":"CET","stop_lat":45.4338281662732,"stop_lon":9.2389037769906,"location_type":1,"stop_name_romanized":"","stop_name_alt":"","stop_cityname":"Milano","stop_cityname_romanized":"Milano","stop_cityname_alt":""},"Mo i Rana":{"stop_id":"Mo i Rana","stop_name":"Mo i Rana","stop_country":"NO","stop_timezone":"CET","stop_lat":66.3096215629994,"stop_lon":14.1336318402867,"location_type":1,"stop_name_romanized":"","stop_name_alt":"","stop_cityname":"Mo i Rana","stop_cityname_romanized":"Mo i Rana","stop_cityname_alt":""},"Montauban Ville Bourbon":{"stop_id":"Montauban Ville Bourbon","stop_name":"Montauban Ville Bourbon","stop_country":"FR","stop_timezone":"CET","stop_lat":44.0144081166195,"stop_lon":1.34145321961282,"location_type":1,"stop_name_romanized":"","stop_name_alt":"","stop_cityname":"Montauban","stop_cityname_romanized":"Montauban","stop_cityname_alt":"Montalban"},"Montpellier Saint-Roch":{"stop_id":"Montpellier Saint-Roch","stop_name":"Montpellier Saint-Roch","stop_country":"FR","stop_timezone":"CET","stop_lat":43.603961739822,"stop_lon":3.87970314721211,"location_type":1,"stop_name_romanized":"","stop_name_alt":"","stop_cityname":"Montpellier Saint-Roch","stop_cityname_romanized":"Montpellier Saint-Roch","stop_cityname_alt":""},"Motherwell":{"stop_id":"Motherwell","stop_name":"Motherwell","stop_country":"UK","stop_timezone":"GMT","stop_lat":55.7917277596365,"stop_lon":-3.99378793825288,"location_type":1,"stop_name_romanized":"","stop_name_alt":"","stop_cityname":"Motherwell","stop_cityname_romanized":"Motherwell","stop_cityname_alt":""},"Mukacheve":{"stop_id":"Mukacheve","stop_name":"Мукачево","stop_country":"UA","stop_timezone":"EET","stop_lat":48.429358,"stop_lon":22.711786,"location_type":1,"stop_name_romanized":"Mukacheve","stop_name_alt":"","stop_cityname":"Мукачево","stop_cityname_romanized":"Mukacheve","stop_cityname_alt":""},"München Hbf":{"stop_id":"München Hbf","stop_name":"München Hbf","stop_country":"DE","stop_timezone":"CET","stop_lat":48.141609,"stop_lon":11.55794,"location_type":1,"stop_name_romanized":"","stop_name_alt":"","stop_cityname":"München","stop_cityname_romanized":"München","stop_cityname_alt":""},"München Ost":{"stop_id":"München Ost","stop_name":"München Ost","stop_country":"DE","stop_timezone":"CET","stop_lat":48.1275616736443,"stop_lon":11.6053894330465,"location_type":1,"stop_name_romanized":"","stop_name_alt":"","stop_cityname":"München","stop_cityname_romanized":"München","stop_cityname_alt":""},"Mûş":{"stop_id":"Mûş","stop_name":"Mûş","stop_country":"TR","stop_timezone":"TRT","stop_lat":38.7614717407607,"stop_lon":41.5111453264192,"location_type":1,"stop_name_romanized":"","stop_name_alt":"","stop_cityname":"Mûş","stop_cityname_romanized":"Mûş","stop_cityname_alt":"Muş"},"Mykolaiv":{"stop_id":"Mykolaiv","stop_name":"Миколаїв","stop_country":"UA","stop_timezone":"EET","stop_lat":46.96891879,"stop_lon":32.01841588,"location_type":1,"stop_name_romanized":"Mykolaiv","stop_name_alt":"","stop_cityname":"Миколаїв","stop_cityname_romanized":"Mykolaiv","stop_cityname_alt":""},"Myrhorod":{"stop_id":"Myrhorod","stop_name":"Миргород","stop_country":"UA","stop_timezone":"EET","stop_lat":49.949416,"stop_lon":33.630021,"location_type":1,"stop_name_romanized":"Myrhorod","stop_name_alt":"","stop_cityname":"Миргород","stop_cityname_romanized":"Myrhorod","stop_cityname_alt":""},"Nässjö C":{"stop_id":"Nässjö C","stop_name":"Nässjö C","stop_country":"SE","stop_timezone":"CET","stop_lat":57.6522614070178,"stop_lon":14.6951469659138,"location_type":1,"stop_name_romanized":"","stop_name_alt":"","stop_cityname":"Nässjö","stop_cityname_romanized":"Nässjö","stop_cityname_alt":""},"Nagykanizsa":{"stop_id":"Nagykanizsa","stop_name":"Nagykanizsa","stop_country":"HU","stop_timezone":"CET","stop_lat":46.4413328934836,"stop_lon":16.9876772483056,"location_type":1,"stop_name_romanized":"","stop_name_alt":"","stop_cityname":"Nagykanizsa","stop_cityname_romanized":"Nagykanizsa","stop_cityname_alt":""},"Napoli Centrale ":{"stop_id":"Napoli Centrale ","stop_name":"Napoli Centrale ","stop_country":"IT","stop_timezone":"CET","stop_lat":40.852827,"stop_lon":14.273072,"location_type":1,"stop_name_romanized":"","stop_name_alt":"","stop_cityname":"Napoli","stop_cityname_romanized":"Napoli","stop_cityname_alt":""},"Narbonne":{"stop_id":"Narbonne","stop_name":"Narbonne","stop_country":"FR","stop_timezone":"CET","stop_lat":43.191987743,"stop_lon":3.00568263835317,"location_type":1,"stop_name_romanized":"","stop_name_alt":"","stop_cityname":"Narbonne","stop_cityname_romanized":"Narbonne","stop_cityname_alt":""},"Narvik":{"stop_id":"Narvik","stop_name":"Narvik","stop_country":"NO","stop_timezone":"CET","stop_lat":68.441701,"stop_lon":17.441419,"location_type":1,"stop_name_romanized":"","stop_name_alt":"","stop_cityname":"Narvik","stop_cityname_romanized":"Narvik","stop_cityname_alt":"Áhkanjárga"},"Naumburg (Saale) Hbf":{"stop_id":"Naumburg (Saale) Hbf","stop_name":"Naumburg (Saale) Hbf","stop_country":"DE","stop_timezone":"CET","stop_lat":51.163004,"stop_lon":11.796706,"location_type":1,"stop_name_romanized":"","stop_name_alt":"","stop_cityname":"Naumburg","stop_cityname_romanized":"Naumburg","stop_cityname_alt":""},"Nice Ville":{"stop_id":"Nice Ville","stop_name":"Nice Ville","stop_country":"FR","stop_timezone":"CET","stop_lat":43.7048414938809,"stop_lon":7.26196743287785,"location_type":1,"stop_name_romanized":"","stop_name_alt":"","stop_cityname":"Nice","stop_cityname_romanized":"Nice","stop_cityname_alt":""},"Nîmes":{"stop_id":"Nîmes","stop_name":"Nîmes","stop_country":"FR","stop_timezone":"CET","stop_lat":43.8328835319217,"stop_lon":4.36612941574888,"location_type":1,"stop_name_romanized":"","stop_name_alt":"","stop_cityname":"Nîmes","stop_cityname_romanized":"Nîmes","stop_cityname_alt":""},"Norrköping C":{"stop_id":"Norrköping C","stop_name":"Norrköping C","stop_country":"SE","stop_timezone":"CET","stop_lat":58.5965766940711,"stop_lon":16.1836626177086,"location_type":1,"stop_name_romanized":"","stop_name_alt":"","stop_cityname":"Norrköping","stop_cityname_romanized":"Norrköping","stop_cityname_alt":""},"Nové Zámky":{"stop_id":"Nové Zámky","stop_name":"Nové Zámky","stop_country":"SK","stop_timezone":"CET","stop_lat":47.995002,"stop_lon":18.173956,"location_type":1,"stop_name_romanized":"","stop_name_alt":"","stop_cityname":"Nové Zámky","stop_cityname_romanized":"Nové Zámky","stop_cityname_alt":""},"Nürnberg Hbf":{"stop_id":"Nürnberg Hbf","stop_name":"Nürnberg Hbf","stop_country":"DE","stop_timezone":"CET","stop_lat":49.447256,"stop_lon":11.082219,"location_type":1,"stop_name_romanized":"","stop_name_alt":"","stop_cityname":"Nürnberg","stop_cityname_romanized":"Nürnberg","stop_cityname_alt":""},"Nyíregyháza":{"stop_id":"Nyíregyháza","stop_name":"Nyíregyháza","stop_country":"HU","stop_timezone":"CET","stop_lat":47.946349,"stop_lon":21.705228,"location_type":1,"stop_name_romanized":"","stop_name_alt":"","stop_cityname":"Nyíregyháza","stop_cityname_romanized":"Nyíregyháza","stop_cityname_alt":""},"Odense":{"stop_id":"Odense","stop_name":"Odense","stop_country":"DK","stop_timezone":"CET","stop_lat":55.401775,"stop_lon":10.3862358,"location_type":1,"stop_name_romanized":"","stop_name_alt":"","stop_cityname":"Odense","stop_cityname_romanized":"Odense","stop_cityname_alt":""},